[
  {
    "cluster_id": 2,
    "cluster_name": "BTP082 - KR Market Junction Cluster Hub",
    "center_latitude": 12.972161108546404,
    "center_longitude": 77.57733435312508,
    "representative_junction": "BTP082 - KR Market Junction",
    "police_station_jurisdiction": "Upparpet",
    "congestion_impact_score": 100.0,
    "total_incident_count": 61217,
    "priority_level": "CRITICAL",
    "morning_peak_string": "09:00 AM",
    "evening_peak_string": "09:00 PM"
  },
  {
    "cluster_id": 3,
    "cluster_name": "BTP051 - Safina Plaza Junction Cluster Hub",
    "center_latitude": 12.981979197274894,
    "center_longitude": 77.6079958640937,
    "representative_junction": "BTP051 - Safina Plaza Junction",
    "police_station_jurisdiction": "Shivajinagar",
    "congestion_impact_score": 88.5,
    "total_incident_count": 25437,
    "priority_level": "CRITICAL",
    "morning_peak_string": "10:00 AM",
    "evening_peak_string": "05:00 PM"
  },
  {
    "cluster_id": 10,
    "cluster_name": "New Horizon College Road Area Cluster Hub",
    "center_latitude": 12.933435092328564,
    "center_longitude": 77.69014229050435,
    "representative_junction": "New Horizon College Road Area",
    "police_station_jurisdiction": "HAL Old Airport",
    "congestion_impact_score": 80.9,
    "total_incident_count": 10232,
    "priority_level": "CRITICAL",
    "morning_peak_string": "08:00 AM",
    "evening_peak_string": "04:00 PM"
  },
  {
    "cluster_id": 5,
    "cluster_name": "BTP027 - Modi Bridge Junction Cluster Hub",
    "center_latitude": 12.995533956213315,
    "center_longitude": 77.55040977746789,
    "representative_junction": "BTP027 - Modi Bridge Junction",
    "police_station_jurisdiction": "Rajajinagar",
    "congestion_impact_score": 80.8,
    "total_incident_count": 14825,
    "priority_level": "CRITICAL",
    "morning_peak_string": "08:00 AM",
    "evening_peak_string": "06:00 PM"
  },
  {
    "cluster_id": 17,
    "cluster_name": "Kadubeesanahalli Underpass Area Cluster Hub",
    "center_latitude": 12.943324411516231,
    "center_longitude": 77.69771621157089,
    "representative_junction": "Kadubeesanahalli Underpass Area",
    "police_station_jurisdiction": "HAL Old Airport",
    "congestion_impact_score": 80.7,
    "total_incident_count": 4381,
    "priority_level": "CRITICAL",
    "morning_peak_string": "08:00 AM",
    "evening_peak_string": "04:00 PM"
  },
  {
    "cluster_id": 33,
    "cluster_name": "80 Feet Ring Road Area Cluster Hub",
    "center_latitude": 13.010300105411359,
    "center_longitude": 77.55330376251405,
    "representative_junction": "80 Feet Ring Road Area",
    "police_station_jurisdiction": "Malleshwaram",
    "congestion_impact_score": 77.0,
    "total_incident_count": 10308,
    "priority_level": "CRITICAL",
    "morning_peak_string": "10:00 AM",
    "evening_peak_string": "04:00 PM"
  },
  {
    "cluster_id": 34,
    "cluster_name": "Sri Venkataranga Ayangar Road Area Cluster Hub",
    "center_latitude": 13.000028222003088,
    "center_longitude": 77.57120012541804,
    "representative_junction": "Sri Venkataranga Ayangar Road Area",
    "police_station_jurisdiction": "Malleshwaram",
    "congestion_impact_score": 76.6,
    "total_incident_count": 10112,
    "priority_level": "CRITICAL",
    "morning_peak_string": "10:00 AM",
    "evening_peak_string": "04:00 PM"
  },
  {
    "cluster_id": 25,
    "cluster_name": "Unnamed Road Area Cluster Hub",
    "center_latitude": 13.185251766433089,
    "center_longitude": 77.68003192652463,
    "representative_junction": "Unnamed Road Area",
    "police_station_jurisdiction": "Chikkajala",
    "congestion_impact_score": 75.4,
    "total_incident_count": 4774,
    "priority_level": "CRITICAL",
    "morning_peak_string": "12:00 PM",
    "evening_peak_string": "04:00 PM"
  },
  {
    "cluster_id": 71,
    "cluster_name": "MBT Road Area Cluster Hub",
    "center_latitude": 12.996274174432582,
    "center_longitude": 77.6685930499948,
    "representative_junction": "MBT Road Area",
    "police_station_jurisdiction": "Mahadevapura",
    "congestion_impact_score": 72.2,
    "total_incident_count": 2015,
    "priority_level": "CRITICAL",
    "morning_peak_string": "10:00 AM",
    "evening_peak_string": "04:00 PM"
  },
  {
    "cluster_id": 7,
    "cluster_name": "MBT Road Area Cluster Hub",
    "center_latitude": 13.008500496623277,
    "center_longitude": 77.69545597784801,
    "representative_junction": "MBT Road Area",
    "police_station_jurisdiction": "K.R. Pura",
    "congestion_impact_score": 71.0,
    "total_incident_count": 4193,
    "priority_level": "CRITICAL",
    "morning_peak_string": "11:00 AM",
    "evening_peak_string": "09:00 PM"
  },
  {
    "cluster_id": 61,
    "cluster_name": "BTP020 - Hosahalli Metro Station Cluster Hub",
    "center_latitude": 12.97424230466754,
    "center_longitude": 77.54729819154498,
    "representative_junction": "BTP020 - Hosahalli Metro Station",
    "police_station_jurisdiction": "Vijayanagara",
    "congestion_impact_score": 69.4,
    "total_incident_count": 9072,
    "priority_level": "CRITICAL",
    "morning_peak_string": "11:00 AM",
    "evening_peak_string": "04:00 PM"
  },
  {
    "cluster_id": 24,
    "cluster_name": "Outer Ring Road Area Cluster Hub",
    "center_latitude": 13.000343273846125,
    "center_longitude": 77.67696972436752,
    "representative_junction": "Outer Ring Road Area",
    "police_station_jurisdiction": "Mahadevapura",
    "congestion_impact_score": 66.5,
    "total_incident_count": 2094,
    "priority_level": "CRITICAL",
    "morning_peak_string": "07:00 AM",
    "evening_peak_string": "06:00 PM"
  },
  {
    "cluster_id": 55,
    "cluster_name": "Sahakar Nagar Road Area Cluster Hub",
    "center_latitude": 13.071001442206398,
    "center_longitude": 77.58845765577259,
    "representative_junction": "Sahakar Nagar Road Area",
    "police_station_jurisdiction": "Kodigehalli",
    "congestion_impact_score": 65.3,
    "total_incident_count": 6166,
    "priority_level": "CRITICAL",
    "morning_peak_string": "11:00 AM",
    "evening_peak_string": "04:00 PM"
  },
  {
    "cluster_id": 28,
    "cluster_name": "Mahatma Gandhi Road Area Cluster Hub",
    "center_latitude": 12.973542781356064,
    "center_longitude": 77.61919137982039,
    "representative_junction": "Mahatma Gandhi Road Area",
    "police_station_jurisdiction": "Halasur",
    "congestion_impact_score": 64.8,
    "total_incident_count": 3025,
    "priority_level": "CRITICAL",
    "morning_peak_string": "08:00 AM",
    "evening_peak_string": "05:00 PM"
  },
  {
    "cluster_id": 30,
    "cluster_name": "BTP016 - 5th Main Road, RPC Layout Cluster Hub",
    "center_latitude": 12.967261785969798,
    "center_longitude": 77.53788634509007,
    "representative_junction": "BTP016 - 5th Main Road, RPC Layout",
    "police_station_jurisdiction": "Vijayanagara",
    "congestion_impact_score": 64.2,
    "total_incident_count": 4777,
    "priority_level": "CRITICAL",
    "morning_peak_string": "10:00 AM",
    "evening_peak_string": "06:00 PM"
  },
  {
    "cluster_id": 96,
    "cluster_name": "ITPL Main Road Area Cluster Hub",
    "center_latitude": 12.962994031547721,
    "center_longitude": 77.71716107116208,
    "representative_junction": "ITPL Main Road Area",
    "police_station_jurisdiction": "HAL Old Airport",
    "congestion_impact_score": 61.9,
    "total_incident_count": 2790,
    "priority_level": "CRITICAL",
    "morning_peak_string": "10:00 AM",
    "evening_peak_string": "06:00 PM"
  },
  {
    "cluster_id": 42,
    "cluster_name": "Bellary Road Area Cluster Hub",
    "center_latitude": 13.03558202425132,
    "center_longitude": 77.58906764537348,
    "representative_junction": "Bellary Road Area",
    "police_station_jurisdiction": "Hebbala",
    "congestion_impact_score": 60.4,
    "total_incident_count": 3479,
    "priority_level": "CRITICAL",
    "morning_peak_string": "11:00 AM",
    "evening_peak_string": "05:00 PM"
  },
  {
    "cluster_id": 21,
    "cluster_name": "Whitefield Road Area Cluster Hub",
    "center_latitude": 12.995570699569882,
    "center_longitude": 77.69569879137335,
    "representative_junction": "Whitefield Road Area",
    "police_station_jurisdiction": "Mahadevapura",
    "congestion_impact_score": 60.4,
    "total_incident_count": 1465,
    "priority_level": "CRITICAL",
    "morning_peak_string": "11:00 AM",
    "evening_peak_string": "05:00 PM"
  },
  {
    "cluster_id": 27,
    "cluster_name": "Marathahalli Underpass Area Cluster Hub",
    "center_latitude": 12.957674276774584,
    "center_longitude": 77.70159601027956,
    "representative_junction": "Marathahalli Underpass Area",
    "police_station_jurisdiction": "HAL Old Airport",
    "congestion_impact_score": 59.6,
    "total_incident_count": 1841,
    "priority_level": "CRITICAL",
    "morning_peak_string": "11:00 AM",
    "evening_peak_string": "04:00 PM"
  },
  {
    "cluster_id": 206,
    "cluster_name": "Sir CV Raman Hospital Road Area Cluster Hub",
    "center_latitude": 12.970320040933332,
    "center_longitude": 77.64708997575745,
    "representative_junction": "Sir CV Raman Hospital Road Area",
    "police_station_jurisdiction": "Jeevanbheemanagar",
    "congestion_impact_score": 59.3,
    "total_incident_count": 1111,
    "priority_level": "CRITICAL",
    "morning_peak_string": "07:00 AM",
    "evening_peak_string": "05:00 PM"
  },
  {
    "cluster_id": 35,
    "cluster_name": "BTP226 - 33rd Cross, 11th Main, Jayanagar Cluster Hub",
    "center_latitude": 12.928392137486096,
    "center_longitude": 77.5834676865406,
    "representative_junction": "BTP226 - 33rd Cross, 11th Main, Jayanagar",
    "police_station_jurisdiction": "Jayanagara",
    "congestion_impact_score": 58.8,
    "total_incident_count": 2255,
    "priority_level": "CRITICAL",
    "morning_peak_string": "08:00 AM",
    "evening_peak_string": "04:00 PM"
  },
  {
    "cluster_id": 23,
    "cluster_name": "Outer Ring Road Area Cluster Hub",
    "center_latitude": 12.926960683386056,
    "center_longitude": 77.67869426401833,
    "representative_junction": "Outer Ring Road Area",
    "police_station_jurisdiction": "Bellandur",
    "congestion_impact_score": 58.7,
    "total_incident_count": 2024,
    "priority_level": "CRITICAL",
    "morning_peak_string": "09:00 AM",
    "evening_peak_string": "06:00 PM"
  },
  {
    "cluster_id": 72,
    "cluster_name": "BTP096 - Gali Anjaneya Temple Cluster Hub",
    "center_latitude": 12.953134773486356,
    "center_longitude": 77.5421964820294,
    "representative_junction": "BTP096 - Gali Anjaneya Temple",
    "police_station_jurisdiction": "Byatarayanapura",
    "congestion_impact_score": 57.3,
    "total_incident_count": 1704,
    "priority_level": "CRITICAL",
    "morning_peak_string": "10:00 AM",
    "evening_peak_string": "04:00 PM"
  },
  {
    "cluster_id": 22,
    "cluster_name": "Hosur Road Area Cluster Hub",
    "center_latitude": 12.889743459446105,
    "center_longitude": 77.63928975319305,
    "representative_junction": "Hosur Road Area",
    "police_station_jurisdiction": "Hulimavu",
    "congestion_impact_score": 56.9,
    "total_incident_count": 1563,
    "priority_level": "CRITICAL",
    "morning_peak_string": "10:00 AM",
    "evening_peak_string": "06:00 PM"
  },
  {
    "cluster_id": 74,
    "cluster_name": "Bengaluru Bellary Road Area Cluster Hub",
    "center_latitude": 13.191253521228463,
    "center_longitude": 77.6462355640824,
    "representative_junction": "Bengaluru Bellary Road Area",
    "police_station_jurisdiction": "Chikkajala",
    "congestion_impact_score": 56.9,
    "total_incident_count": 947,
    "priority_level": "CRITICAL",
    "morning_peak_string": "12:00 PM",
    "evening_peak_string": "06:00 PM"
  },
  {
    "cluster_id": 90,
    "cluster_name": "Outer Ring Road Area Cluster Hub",
    "center_latitude": 12.979292129466726,
    "center_longitude": 77.69499432903022,
    "representative_junction": "Outer Ring Road Area",
    "police_station_jurisdiction": "Mahadevapura",
    "congestion_impact_score": 56.8,
    "total_incident_count": 522,
    "priority_level": "CRITICAL",
    "morning_peak_string": "11:00 AM",
    "evening_peak_string": "06:00 PM"
  },
  {
    "cluster_id": 43,
    "cluster_name": "Old Airport Road Area Cluster Hub",
    "center_latitude": 12.959808480504538,
    "center_longitude": 77.6468932292506,
    "representative_junction": "Old Airport Road Area",
    "police_station_jurisdiction": "Jeevanbheemanagar",
    "congestion_impact_score": 56.5,
    "total_incident_count": 1508,
    "priority_level": "CRITICAL",
    "morning_peak_string": "08:00 AM",
    "evening_peak_string": "09:00 PM"
  },
  {
    "cluster_id": 81,
    "cluster_name": "Mumbai Bengaluru Highway Area Cluster Hub",
    "center_latitude": 13.029377832472745,
    "center_longitude": 77.53885620082265,
    "representative_junction": "Mumbai Bengaluru Highway Area",
    "police_station_jurisdiction": "Yeshwanthpura",
    "congestion_impact_score": 56.0,
    "total_incident_count": 1263,
    "priority_level": "CRITICAL",
    "morning_peak_string": "10:00 AM",
    "evening_peak_string": "04:00 PM"
  },
  {
    "cluster_id": 87,
    "cluster_name": "BTP108 - Tagore Park Junction Cluster Hub",
    "center_latitude": 12.943815301466673,
    "center_longitude": 77.57142672051842,
    "representative_junction": "BTP108 - Tagore Park Junction",
    "police_station_jurisdiction": "Basavanagudi",
    "congestion_impact_score": 55.4,
    "total_incident_count": 2435,
    "priority_level": "CRITICAL",
    "morning_peak_string": "10:00 AM",
    "evening_peak_string": "04:00 PM"
  },
  {
    "cluster_id": 15,
    "cluster_name": "Domlur Inner Ring Road Area Cluster Hub",
    "center_latitude": 12.967777256681634,
    "center_longitude": 77.64079458979401,
    "representative_junction": "Domlur Inner Ring Road Area",
    "police_station_jurisdiction": "Jeevanbheemanagar",
    "congestion_impact_score": 55.3,
    "total_incident_count": 1426,
    "priority_level": "CRITICAL",
    "morning_peak_string": "07:00 AM",
    "evening_peak_string": "05:00 PM"
  },
  {
    "cluster_id": 230,
    "cluster_name": "BSR Paradise Road Area Cluster Hub",
    "center_latitude": 12.928995691733144,
    "center_longitude": 77.69510073346298,
    "representative_junction": "BSR Paradise Road Area",
    "police_station_jurisdiction": "Bellandur",
    "congestion_impact_score": 54.6,
    "total_incident_count": 524,
    "priority_level": "CRITICAL",
    "morning_peak_string": "11:00 AM",
    "evening_peak_string": "06:00 PM"
  },
  {
    "cluster_id": 18,
    "cluster_name": "Neeladri Road Area Cluster Hub",
    "center_latitude": 12.841861470730283,
    "center_longitude": 77.64596712227053,
    "representative_junction": "Neeladri Road Area",
    "police_station_jurisdiction": "Electronic City",
    "congestion_impact_score": 54.4,
    "total_incident_count": 2101,
    "priority_level": "HIGH",
    "morning_peak_string": "12:00 PM",
    "evening_peak_string": "06:00 PM"
  },
  {
    "cluster_id": 51,
    "cluster_name": "Brigade Road Area Cluster Hub",
    "center_latitude": 12.972440327793931,
    "center_longitude": 77.60707773449167,
    "representative_junction": "Brigade Road Area",
    "police_station_jurisdiction": "Ashok Nagar",
    "congestion_impact_score": 54.4,
    "total_incident_count": 1725,
    "priority_level": "HIGH",
    "morning_peak_string": "12:00 PM",
    "evening_peak_string": "04:00 PM"
  },
  {
    "cluster_id": 4,
    "cluster_name": "Coles Road Area Cluster Hub",
    "center_latitude": 12.995506416543437,
    "center_longitude": 77.61285936751386,
    "representative_junction": "Coles Road Area",
    "police_station_jurisdiction": "Pulikeshinagar(F.Town)",
    "congestion_impact_score": 54.2,
    "total_incident_count": 2018,
    "priority_level": "HIGH",
    "morning_peak_string": "12:00 PM",
    "evening_peak_string": "06:00 PM"
  },
  {
    "cluster_id": 19,
    "cluster_name": "BTP032 - Windsor Circle Cluster Hub",
    "center_latitude": 12.992617603661111,
    "center_longitude": 77.58895145010538,
    "representative_junction": "BTP032 - Windsor Circle",
    "police_station_jurisdiction": "High ground",
    "congestion_impact_score": 53.7,
    "total_incident_count": 3007,
    "priority_level": "HIGH",
    "morning_peak_string": "08:00 AM",
    "evening_peak_string": "06:00 PM"
  },
  {
    "cluster_id": 16,
    "cluster_name": "MBT Road Area Cluster Hub",
    "center_latitude": 13.00570317724557,
    "center_longitude": 77.68581505305606,
    "representative_junction": "MBT Road Area",
    "police_station_jurisdiction": "K.R. Pura",
    "congestion_impact_score": 52.6,
    "total_incident_count": 1323,
    "priority_level": "HIGH",
    "morning_peak_string": "10:00 AM",
    "evening_peak_string": "04:00 PM"
  },
  {
    "cluster_id": 82,
    "cluster_name": "BTP135 - UCO Bank Junction Cluster Hub",
    "center_latitude": 12.935390056014151,
    "center_longitude": 77.61516231025944,
    "representative_junction": "BTP135 - UCO Bank Junction",
    "police_station_jurisdiction": "Adugodi",
    "congestion_impact_score": 52.2,
    "total_incident_count": 1481,
    "priority_level": "HIGH",
    "morning_peak_string": "11:00 AM",
    "evening_peak_string": "05:00 PM"
  },
  {
    "cluster_id": 38,
    "cluster_name": "BTP192 - Urvashi Theater Cluster Hub",
    "center_latitude": 12.95740556387632,
    "center_longitude": 77.58614929223228,
    "representative_junction": "BTP192 - Urvashi Theater",
    "police_station_jurisdiction": "Wilson Garden",
    "congestion_impact_score": 51.6,
    "total_incident_count": 1267,
    "priority_level": "HIGH",
    "morning_peak_string": "09:00 AM",
    "evening_peak_string": "06:00 PM"
  },
  {
    "cluster_id": 53,
    "cluster_name": "BTP074 - Leprosy Hospital Junction Cluster Hub",
    "center_latitude": 12.975712606572316,
    "center_longitude": 77.55986265695243,
    "representative_junction": "BTP074 - Leprosy Hospital Junction",
    "police_station_jurisdiction": "Magadi Road",
    "congestion_impact_score": 51.6,
    "total_incident_count": 1794,
    "priority_level": "HIGH",
    "morning_peak_string": "11:00 AM",
    "evening_peak_string": "08:00 PM"
  },
  {
    "cluster_id": 70,
    "cluster_name": "Hosapalya Main Road Area Cluster Hub",
    "center_latitude": 12.906556552536584,
    "center_longitude": 77.62983351121255,
    "representative_junction": "Hosapalya Main Road Area",
    "police_station_jurisdiction": "HSR Layout",
    "congestion_impact_score": 51.5,
    "total_incident_count": 1240,
    "priority_level": "HIGH",
    "morning_peak_string": "12:00 PM",
    "evening_peak_string": "04:00 PM"
  },
  {
    "cluster_id": 86,
    "cluster_name": "Laggere Service Road Area Cluster Hub",
    "center_latitude": 13.007693548656716,
    "center_longitude": 77.52684412791045,
    "representative_junction": "Laggere Service Road Area",
    "police_station_jurisdiction": "Rajajinagar",
    "congestion_impact_score": 51.4,
    "total_incident_count": 437,
    "priority_level": "HIGH",
    "morning_peak_string": "11:00 AM",
    "evening_peak_string": "06:00 PM"
  },
  {
    "cluster_id": 140,
    "cluster_name": "ITPL Main Road Area Cluster Hub",
    "center_latitude": 12.97197470608909,
    "center_longitude": 77.71177327933495,
    "representative_junction": "ITPL Main Road Area",
    "police_station_jurisdiction": "HAL Old Airport",
    "congestion_impact_score": 51.4,
    "total_incident_count": 840,
    "priority_level": "HIGH",
    "morning_peak_string": "09:00 AM",
    "evening_peak_string": "06:00 PM"
  },
  {
    "cluster_id": 62,
    "cluster_name": "Dr Rajkumar Puniya Bhoomi Road Area Cluster Hub",
    "center_latitude": 13.01768012338252,
    "center_longitude": 77.53148096208852,
    "representative_junction": "Dr Rajkumar Puniya Bhoomi Road Area",
    "police_station_jurisdiction": "Rajajinagar",
    "congestion_impact_score": 51.4,
    "total_incident_count": 667,
    "priority_level": "HIGH",
    "morning_peak_string": "11:00 AM",
    "evening_peak_string": "06:00 PM"
  },
  {
    "cluster_id": 104,
    "cluster_name": "BTP042 - Minsk Square Junction (CTO) Cluster Hub",
    "center_latitude": 12.981275709330452,
    "center_longitude": 77.59847037451404,
    "representative_junction": "BTP042 - Minsk Square Junction (CTO)",
    "police_station_jurisdiction": "Shivajinagar",
    "congestion_impact_score": 50.6,
    "total_incident_count": 2172,
    "priority_level": "HIGH",
    "morning_peak_string": "08:00 AM",
    "evening_peak_string": "04:00 PM"
  },
  {
    "cluster_id": 77,
    "cluster_name": "80 Feet Road Area Cluster Hub",
    "center_latitude": 13.027871646060659,
    "center_longitude": 77.57464527585972,
    "representative_junction": "80 Feet Road Area",
    "police_station_jurisdiction": "Sadashivanagar",
    "congestion_impact_score": 50.4,
    "total_incident_count": 1234,
    "priority_level": "HIGH",
    "morning_peak_string": "11:00 AM",
    "evening_peak_string": "06:00 PM"
  },
  {
    "cluster_id": 63,
    "cluster_name": "20th Main Road Area Cluster Hub",
    "center_latitude": 13.062852550093282,
    "center_longitude": 77.58917787266792,
    "representative_junction": "20th Main Road Area",
    "police_station_jurisdiction": "Kodigehalli",
    "congestion_impact_score": 50.3,
    "total_incident_count": 902,
    "priority_level": "HIGH",
    "morning_peak_string": "12:00 PM",
    "evening_peak_string": "04:00 PM"
  },
  {
    "cluster_id": 29,
    "cluster_name": "BTP063 - Siddalingaiah Circle Cluster Hub",
    "center_latitude": 12.97139916782388,
    "center_longitude": 77.596855550127,
    "representative_junction": "BTP063 - Siddalingaiah Circle",
    "police_station_jurisdiction": "Cubbon Park",
    "congestion_impact_score": 49.6,
    "total_incident_count": 1117,
    "priority_level": "HIGH",
    "morning_peak_string": "11:00 AM",
    "evening_peak_string": "06:00 PM"
  },
  {
    "cluster_id": 8,
    "cluster_name": "17th Cross Road Area Cluster Hub",
    "center_latitude": 12.91218535405048,
    "center_longitude": 77.6360956723,
    "representative_junction": "17th Cross Road Area",
    "police_station_jurisdiction": "HSR Layout",
    "congestion_impact_score": 49.5,
    "total_incident_count": 1934,
    "priority_level": "HIGH",
    "morning_peak_string": "12:00 PM",
    "evening_peak_string": "05:00 PM"
  },
  {
    "cluster_id": 135,
    "cluster_name": "Pusa Thippasandra Main Road Area Cluster Hub",
    "center_latitude": 12.971748563118235,
    "center_longitude": 77.65809036686447,
    "representative_junction": "Pusa Thippasandra Main Road Area",
    "police_station_jurisdiction": "Jeevanbheemanagar",
    "congestion_impact_score": 49.1,
    "total_incident_count": 1234,
    "priority_level": "HIGH",
    "morning_peak_string": "07:00 AM",
    "evening_peak_string": "04:00 PM"
  },
  {
    "cluster_id": 68,
    "cluster_name": "Old Madras Road Area Cluster Hub",
    "center_latitude": 12.979055418657564,
    "center_longitude": 77.62879978509669,
    "representative_junction": "Old Madras Road Area",
    "police_station_jurisdiction": "Halasur",
    "congestion_impact_score": 48.9,
    "total_incident_count": 278,
    "priority_level": "HIGH",
    "morning_peak_string": "08:00 AM",
    "evening_peak_string": "06:00 PM"
  },
  {
    "cluster_id": 158,
    "cluster_name": "Vibgyor High School Road Area Cluster Hub",
    "center_latitude": 12.951420524169853,
    "center_longitude": 77.71747556415377,
    "representative_junction": "Vibgyor High School Road Area",
    "police_station_jurisdiction": "Whitefield",
    "congestion_impact_score": 48.4,
    "total_incident_count": 396,
    "priority_level": "HIGH",
    "morning_peak_string": "08:00 AM",
    "evening_peak_string": "04:00 PM"
  },
  {
    "cluster_id": 65,
    "cluster_name": "Thavarekere Main Road Area Cluster Hub",
    "center_latitude": 12.928892538021639,
    "center_longitude": 77.60942896197837,
    "representative_junction": "Thavarekere Main Road Area",
    "police_station_jurisdiction": "Mico Layout",
    "congestion_impact_score": 48.4,
    "total_incident_count": 391,
    "priority_level": "HIGH",
    "morning_peak_string": "11:00 AM",
    "evening_peak_string": "06:00 PM"
  },
  {
    "cluster_id": 73,
    "cluster_name": "JJR Main Road Area Cluster Hub",
    "center_latitude": 12.964382510852019,
    "center_longitude": 77.55421149147982,
    "representative_junction": "JJR Main Road Area",
    "police_station_jurisdiction": "Magadi Road",
    "congestion_impact_score": 48.2,
    "total_incident_count": 826,
    "priority_level": "HIGH",
    "morning_peak_string": "10:00 AM",
    "evening_peak_string": "06:00 PM"
  },
  {
    "cluster_id": 59,
    "cluster_name": "Whitefield Road Area Cluster Hub",
    "center_latitude": 12.987502591537545,
    "center_longitude": 77.73463016072706,
    "representative_junction": "Whitefield Road Area",
    "police_station_jurisdiction": "Whitefield",
    "congestion_impact_score": 48.0,
    "total_incident_count": 683,
    "priority_level": "HIGH",
    "morning_peak_string": "12:00 PM",
    "evening_peak_string": "05:00 PM"
  },
  {
    "cluster_id": 115,
    "cluster_name": "Queens Road Area Cluster Hub",
    "center_latitude": 12.989444237348273,
    "center_longitude": 77.59971976227824,
    "representative_junction": "Queens Road Area",
    "police_station_jurisdiction": "Shivajinagar",
    "congestion_impact_score": 47.2,
    "total_incident_count": 1016,
    "priority_level": "HIGH",
    "morning_peak_string": "12:00 PM",
    "evening_peak_string": "06:00 PM"
  },
  {
    "cluster_id": 66,
    "cluster_name": "BTP208 - Havanur Circle Cluster Hub",
    "center_latitude": 12.988703887342542,
    "center_longitude": 77.53771452413498,
    "representative_junction": "BTP208 - Havanur Circle",
    "police_station_jurisdiction": "Vijayanagara",
    "congestion_impact_score": 47.2,
    "total_incident_count": 1003,
    "priority_level": "HIGH",
    "morning_peak_string": "10:00 AM",
    "evening_peak_string": "06:00 PM"
  },
  {
    "cluster_id": 80,
    "cluster_name": "BTP010 - Rajajinagar Entrance Cluster Hub",
    "center_latitude": 12.980365317592675,
    "center_longitude": 77.55664553354691,
    "representative_junction": "BTP010 - Rajajinagar Entrance",
    "police_station_jurisdiction": "Magadi Road",
    "congestion_impact_score": 45.6,
    "total_incident_count": 813,
    "priority_level": "HIGH",
    "morning_peak_string": "12:00 PM",
    "evening_peak_string": "06:00 PM"
  },
  {
    "cluster_id": 52,
    "cluster_name": "Bhadrappa Flyover Area Cluster Hub",
    "center_latitude": 13.047496557649092,
    "center_longitude": 77.57565041123596,
    "representative_junction": "Bhadrappa Flyover Area",
    "police_station_jurisdiction": "Kodigehalli",
    "congestion_impact_score": 44.7,
    "total_incident_count": 1075,
    "priority_level": "HIGH",
    "morning_peak_string": "10:00 AM",
    "evening_peak_string": "06:00 PM"
  },
  {
    "cluster_id": 95,
    "cluster_name": "Jakkur Main Road Area Cluster Hub",
    "center_latitude": 13.097292243879034,
    "center_longitude": 77.59931608243568,
    "representative_junction": "Jakkur Main Road Area",
    "police_station_jurisdiction": "Yelahanka",
    "congestion_impact_score": 44.3,
    "total_incident_count": 836,
    "priority_level": "HIGH",
    "morning_peak_string": "11:00 AM",
    "evening_peak_string": "06:00 PM"
  },
  {
    "cluster_id": 0,
    "cluster_name": "BTP137 - Madiwala Traffic PS Junction Cluster Hub",
    "center_latitude": 12.925239349958249,
    "center_longitude": 77.61883391689462,
    "representative_junction": "BTP137 - Madiwala Traffic PS Junction",
    "police_station_jurisdiction": "Madiwala",
    "congestion_impact_score": 44.3,
    "total_incident_count": 596,
    "priority_level": "HIGH",
    "morning_peak_string": "09:00 AM",
    "evening_peak_string": "06:00 PM"
  },
  {
    "cluster_id": 157,
    "cluster_name": "BTP202 - East End Main Road, Jayanagar Cluster Hub",
    "center_latitude": 12.917114469714285,
    "center_longitude": 77.59604352114286,
    "representative_junction": "BTP202 - East End Main Road, Jayanagar",
    "police_station_jurisdiction": "Jayanagara",
    "congestion_impact_score": 43.9,
    "total_incident_count": 233,
    "priority_level": "HIGH",
    "morning_peak_string": "08:00 AM",
    "evening_peak_string": "06:00 PM"
  },
  {
    "cluster_id": 221,
    "cluster_name": "Srinivagilu Main Road Area Cluster Hub",
    "center_latitude": 12.932214682133996,
    "center_longitude": 77.63184469962779,
    "representative_junction": "Srinivagilu Main Road Area",
    "police_station_jurisdiction": "Adugodi",
    "congestion_impact_score": 43.6,
    "total_incident_count": 737,
    "priority_level": "HIGH",
    "morning_peak_string": "11:00 AM",
    "evening_peak_string": "06:00 PM"
  },
  {
    "cluster_id": 129,
    "cluster_name": "BTP041 - Gopal Gowda Circle Cluster Hub",
    "center_latitude": 12.978140678476421,
    "center_longitude": 77.59094511547764,
    "representative_junction": "BTP041 - Gopal Gowda Circle",
    "police_station_jurisdiction": "Cubbon Park",
    "congestion_impact_score": 43.6,
    "total_incident_count": 740,
    "priority_level": "HIGH",
    "morning_peak_string": "11:00 AM",
    "evening_peak_string": "06:00 PM"
  },
  {
    "cluster_id": 36,
    "cluster_name": "Chinmaya Mission Hospital Road Area Cluster Hub",
    "center_latitude": 12.978316546404479,
    "center_longitude": 77.63971689499935,
    "representative_junction": "Chinmaya Mission Hospital Road Area",
    "police_station_jurisdiction": "Jeevanbheemanagar",
    "congestion_impact_score": 43.6,
    "total_incident_count": 506,
    "priority_level": "HIGH",
    "morning_peak_string": "09:00 AM",
    "evening_peak_string": "06:00 PM"
  },
  {
    "cluster_id": 171,
    "cluster_name": "5th Cross Road Area Cluster Hub",
    "center_latitude": 13.035218499796748,
    "center_longitude": 77.62442222398374,
    "representative_junction": "5th Cross Road Area",
    "police_station_jurisdiction": "K.G. Halli",
    "congestion_impact_score": 43.5,
    "total_incident_count": 484,
    "priority_level": "HIGH",
    "morning_peak_string": "11:00 AM",
    "evening_peak_string": "06:00 PM"
  },
  {
    "cluster_id": 1,
    "cluster_name": "Gnana Bharathi Road Area Cluster Hub",
    "center_latitude": 12.957401047605634,
    "center_longitude": 77.51885741661972,
    "representative_junction": "Gnana Bharathi Road Area",
    "police_station_jurisdiction": "Byatarayanapura",
    "congestion_impact_score": 43.5,
    "total_incident_count": 521,
    "priority_level": "HIGH",
    "morning_peak_string": "12:00 PM",
    "evening_peak_string": "06:00 PM"
  },
  {
    "cluster_id": 57,
    "cluster_name": "Bellary Road Area Cluster Hub",
    "center_latitude": 13.024951775719664,
    "center_longitude": 77.58527090663279,
    "representative_junction": "Bellary Road Area",
    "police_station_jurisdiction": "R.T. Nagar",
    "congestion_impact_score": 42.9,
    "total_incident_count": 654,
    "priority_level": "HIGH",
    "morning_peak_string": "10:00 AM",
    "evening_peak_string": "06:00 PM"
  },
  {
    "cluster_id": 193,
    "cluster_name": "Jalahalli Cross Road Area Cluster Hub",
    "center_latitude": 13.039888605159538,
    "center_longitude": 77.51855436388323,
    "representative_junction": "Jalahalli Cross Road Area",
    "police_station_jurisdiction": "Peenya",
    "congestion_impact_score": 42.4,
    "total_incident_count": 336,
    "priority_level": "HIGH",
    "morning_peak_string": "11:00 AM",
    "evening_peak_string": "04:00 PM"
  },
  {
    "cluster_id": 98,
    "cluster_name": "BTP172 - Nanjappa Circle Cluster Hub",
    "center_latitude": 12.961992711253776,
    "center_longitude": 77.59817033595166,
    "representative_junction": "BTP172 - Nanjappa Circle",
    "police_station_jurisdiction": "Ashok Nagar",
    "congestion_impact_score": 42.1,
    "total_incident_count": 1299,
    "priority_level": "HIGH",
    "morning_peak_string": "10:00 AM",
    "evening_peak_string": "06:00 PM"
  },
  {
    "cluster_id": 101,
    "cluster_name": "Robertson Road Area Cluster Hub",
    "center_latitude": 13.000373741935483,
    "center_longitude": 77.61134493189964,
    "representative_junction": "Robertson Road Area",
    "police_station_jurisdiction": "Pulikeshinagar(F.Town)",
    "congestion_impact_score": 41.5,
    "total_incident_count": 707,
    "priority_level": "HIGH",
    "morning_peak_string": "11:00 AM",
    "evening_peak_string": "06:00 PM"
  },
  {
    "cluster_id": 108,
    "cluster_name": "Mallathahalli Road Area Cluster Hub",
    "center_latitude": 12.96096482248062,
    "center_longitude": 77.51166346879845,
    "representative_junction": "Mallathahalli Road Area",
    "police_station_jurisdiction": "Jnanabharathi",
    "congestion_impact_score": 40.8,
    "total_incident_count": 476,
    "priority_level": "HIGH",
    "morning_peak_string": "12:00 PM",
    "evening_peak_string": "06:00 PM"
  },
  {
    "cluster_id": 97,
    "cluster_name": "BTP010 - Rajajinagar Entrance Cluster Hub",
    "center_latitude": 12.983757713040337,
    "center_longitude": 77.56129830769623,
    "representative_junction": "BTP010 - Rajajinagar Entrance",
    "police_station_jurisdiction": "Rajajinagar",
    "congestion_impact_score": 40.6,
    "total_incident_count": 585,
    "priority_level": "HIGH",
    "morning_peak_string": "11:00 AM",
    "evening_peak_string": "06:00 PM"
  },
  {
    "cluster_id": 79,
    "cluster_name": "1st Cross Road Area Cluster Hub",
    "center_latitude": 13.045880691122715,
    "center_longitude": 77.75033068590079,
    "representative_junction": "1st Cross Road Area",
    "police_station_jurisdiction": "K.R. Pura",
    "congestion_impact_score": 40.3,
    "total_incident_count": 222,
    "priority_level": "HIGH",
    "morning_peak_string": "12:00 PM",
    "evening_peak_string": "06:00 PM"
  },
  {
    "cluster_id": 48,
    "cluster_name": "BTP032 - Windsor Circle Cluster Hub",
    "center_latitude": 12.9967574813548,
    "center_longitude": 77.5841200331885,
    "representative_junction": "BTP032 - Windsor Circle",
    "police_station_jurisdiction": "Sheshadripuram",
    "congestion_impact_score": 40.2,
    "total_incident_count": 361,
    "priority_level": "HIGH",
    "morning_peak_string": "10:00 AM",
    "evening_peak_string": "06:00 PM"
  },
  {
    "cluster_id": 146,
    "cluster_name": "Bellahali Main Road Area Cluster Hub",
    "center_latitude": 13.121636910666666,
    "center_longitude": 77.63112896356323,
    "representative_junction": "Bellahali Main Road Area",
    "police_station_jurisdiction": "Chikkajala",
    "congestion_impact_score": 40.2,
    "total_incident_count": 295,
    "priority_level": "HIGH",
    "morning_peak_string": "07:00 AM",
    "evening_peak_string": "06:00 PM"
  },
  {
    "cluster_id": 131,
    "cluster_name": "Bellary Road Area Cluster Hub",
    "center_latitude": 13.050104732049038,
    "center_longitude": 77.59311968493871,
    "representative_junction": "Bellary Road Area",
    "police_station_jurisdiction": "Kodigehalli",
    "congestion_impact_score": 40.2,
    "total_incident_count": 479,
    "priority_level": "HIGH",
    "morning_peak_string": "08:00 AM",
    "evening_peak_string": "04:00 PM"
  },
  {
    "cluster_id": 44,
    "cluster_name": "Hosur Road Area Cluster Hub",
    "center_latitude": 12.91204718497556,
    "center_longitude": 77.62591462659282,
    "representative_junction": "Hosur Road Area",
    "police_station_jurisdiction": "HSR Layout",
    "congestion_impact_score": 40.1,
    "total_incident_count": 438,
    "priority_level": "HIGH",
    "morning_peak_string": "11:00 AM",
    "evening_peak_string": "04:00 PM"
  },
  {
    "cluster_id": 75,
    "cluster_name": "BTP076 - Hudson Circle Cluster Hub",
    "center_latitude": 12.968101104842077,
    "center_longitude": 77.58786130229302,
    "representative_junction": "BTP076 - Hudson Circle",
    "police_station_jurisdiction": "Halasuru Gate",
    "congestion_impact_score": 39.9,
    "total_incident_count": 592,
    "priority_level": "HIGH",
    "morning_peak_string": "10:00 AM",
    "evening_peak_string": "06:00 PM"
  },
  {
    "cluster_id": 119,
    "cluster_name": "4th Main Road Area Cluster Hub",
    "center_latitude": 12.96083391023754,
    "center_longitude": 77.52824033764914,
    "representative_junction": "4th Main Road Area",
    "police_station_jurisdiction": "Byatarayanapura",
    "congestion_impact_score": 39.7,
    "total_incident_count": 985,
    "priority_level": "HIGH",
    "morning_peak_string": "12:00 PM",
    "evening_peak_string": "06:00 PM"
  },
  {
    "cluster_id": 143,
    "cluster_name": "BTP136 - Hosur-Tavarkere Road Junction Cluster Hub",
    "center_latitude": 12.936066880371353,
    "center_longitude": 77.6070956066313,
    "representative_junction": "BTP136 - Hosur-Tavarkere Road Junction",
    "police_station_jurisdiction": "Mico Layout",
    "congestion_impact_score": 39.7,
    "total_incident_count": 257,
    "priority_level": "HIGH",
    "morning_peak_string": "07:00 AM",
    "evening_peak_string": "06:00 PM"
  },
  {
    "cluster_id": 54,
    "cluster_name": "BTP186 - 9th Cross, 4th Main, Jayanagar Cluster Hub",
    "center_latitude": 12.93834205062265,
    "center_longitude": 77.5844929156913,
    "representative_junction": "BTP186 - 9th Cross, 4th Main, Jayanagar",
    "police_station_jurisdiction": "Wilson Garden",
    "congestion_impact_score": 39.6,
    "total_incident_count": 891,
    "priority_level": "HIGH",
    "morning_peak_string": "11:00 AM",
    "evening_peak_string": "04:00 PM"
  },
  {
    "cluster_id": 9,
    "cluster_name": "Amrutha College Road Area Cluster Hub",
    "center_latitude": 12.899685681029583,
    "center_longitude": 77.67546475084386,
    "representative_junction": "Amrutha College Road Area",
    "police_station_jurisdiction": "Bellandur",
    "congestion_impact_score": 39.6,
    "total_incident_count": 603,
    "priority_level": "HIGH",
    "morning_peak_string": "11:00 AM",
    "evening_peak_string": "04:00 PM"
  },
  {
    "cluster_id": 123,
    "cluster_name": "BTP167 - JC Road Junction Cluster Hub",
    "center_latitude": 12.956994346688699,
    "center_longitude": 77.581129134771,
    "representative_junction": "BTP167 - JC Road Junction",
    "police_station_jurisdiction": "City Market",
    "congestion_impact_score": 39.5,
    "total_incident_count": 444,
    "priority_level": "HIGH",
    "morning_peak_string": "08:00 AM",
    "evening_peak_string": "06:00 PM"
  },
  {
    "cluster_id": 78,
    "cluster_name": "BTP115 - Sahasra Hospital, Jayanagar Cluster Hub",
    "center_latitude": 12.916973541144491,
    "center_longitude": 77.57358945101682,
    "representative_junction": "BTP115 - Sahasra Hospital, Jayanagar",
    "police_station_jurisdiction": "Banashankari",
    "congestion_impact_score": 39.5,
    "total_incident_count": 544,
    "priority_level": "HIGH",
    "morning_peak_string": "11:00 AM",
    "evening_peak_string": "04:00 PM"
  },
  {
    "cluster_id": 192,
    "cluster_name": "Hosur Road Area Cluster Hub",
    "center_latitude": 12.84048822118502,
    "center_longitude": 77.67685559361905,
    "representative_junction": "Hosur Road Area",
    "police_station_jurisdiction": "Electronic City",
    "congestion_impact_score": 39.5,
    "total_incident_count": 416,
    "priority_level": "HIGH",
    "morning_peak_string": "08:00 AM",
    "evening_peak_string": "04:00 PM"
  },
  {
    "cluster_id": 89,
    "cluster_name": "Hosur Road Area Cluster Hub",
    "center_latitude": 12.875941369940476,
    "center_longitude": 77.64790796011906,
    "representative_junction": "Hosur Road Area",
    "police_station_jurisdiction": "Hulimavu",
    "congestion_impact_score": 39.5,
    "total_incident_count": 334,
    "priority_level": "HIGH",
    "morning_peak_string": "11:00 AM",
    "evening_peak_string": "06:00 PM"
  },
  {
    "cluster_id": 49,
    "cluster_name": "Old Madras Road Area Cluster Hub",
    "center_latitude": 12.993625831549977,
    "center_longitude": 77.66265266489137,
    "representative_junction": "Old Madras Road Area",
    "police_station_jurisdiction": "Banaswadi",
    "congestion_impact_score": 39.3,
    "total_incident_count": 864,
    "priority_level": "HIGH",
    "morning_peak_string": "12:00 PM",
    "evening_peak_string": "04:00 PM"
  },
  {
    "cluster_id": 92,
    "cluster_name": "Hosur Road Area Cluster Hub",
    "center_latitude": 12.819090198568507,
    "center_longitude": 77.6886605625767,
    "representative_junction": "Hosur Road Area",
    "police_station_jurisdiction": "Electronic City",
    "congestion_impact_score": 39.0,
    "total_incident_count": 240,
    "priority_level": "HIGH",
    "morning_peak_string": "09:00 AM",
    "evening_peak_string": "06:00 PM"
  },
  {
    "cluster_id": 145,
    "cluster_name": "Mumbai Bengaluru Highway Area Cluster Hub",
    "center_latitude": 13.015334886579096,
    "center_longitude": 77.55520707847144,
    "representative_junction": "Mumbai Bengaluru Highway Area",
    "police_station_jurisdiction": "Malleshwaram",
    "congestion_impact_score": 38.9,
    "total_incident_count": 188,
    "priority_level": "HIGH",
    "morning_peak_string": "11:00 AM",
    "evening_peak_string": "06:00 PM"
  },
  {
    "cluster_id": 110,
    "cluster_name": "MS Ramaiah Road Area Cluster Hub",
    "center_latitude": 13.033716984607558,
    "center_longitude": 77.5579251055324,
    "representative_junction": "MS Ramaiah Road Area",
    "police_station_jurisdiction": "Yeshwanthpura",
    "congestion_impact_score": 38.6,
    "total_incident_count": 297,
    "priority_level": "HIGH",
    "morning_peak_string": "10:00 AM",
    "evening_peak_string": "06:00 PM"
  },
  {
    "cluster_id": 114,
    "cluster_name": "Hosa Road Area Cluster Hub",
    "center_latitude": 12.870460002250457,
    "center_longitude": 77.65462211252284,
    "representative_junction": "Hosa Road Area",
    "police_station_jurisdiction": "Electronic City",
    "congestion_impact_score": 38.4,
    "total_incident_count": 490,
    "priority_level": "HIGH",
    "morning_peak_string": "12:00 PM",
    "evening_peak_string": "06:00 PM"
  },
  {
    "cluster_id": 130,
    "cluster_name": "CV Raman Road Area Cluster Hub",
    "center_latitude": 13.018879013013208,
    "center_longitude": 77.55770349269369,
    "representative_junction": "CV Raman Road Area",
    "police_station_jurisdiction": "Yeshwanthpura",
    "congestion_impact_score": 38.1,
    "total_incident_count": 407,
    "priority_level": "MEDIUM",
    "morning_peak_string": "08:00 AM",
    "evening_peak_string": "06:00 PM"
  },
  {
    "cluster_id": 219,
    "cluster_name": "Mumbai Bengaluru Highway Area Cluster Hub",
    "center_latitude": 13.048878041889765,
    "center_longitude": 77.49737907801837,
    "representative_junction": "Mumbai Bengaluru Highway Area",
    "police_station_jurisdiction": "Chikkabanavara",
    "congestion_impact_score": 37.2,
    "total_incident_count": 138,
    "priority_level": "MEDIUM",
    "morning_peak_string": "11:00 AM",
    "evening_peak_string": "06:00 PM"
  },
  {
    "cluster_id": 154,
    "cluster_name": "5th Main Road Area Cluster Hub",
    "center_latitude": 12.941670239105083,
    "center_longitude": 77.56709025978162,
    "representative_junction": "5th Main Road Area",
    "police_station_jurisdiction": "Basavanagudi",
    "congestion_impact_score": 36.8,
    "total_incident_count": 445,
    "priority_level": "MEDIUM",
    "morning_peak_string": "08:00 AM",
    "evening_peak_string": "06:00 PM"
  },
  {
    "cluster_id": 106,
    "cluster_name": "7th Cross Road Area Cluster Hub",
    "center_latitude": 12.913685935294119,
    "center_longitude": 77.6065004866013,
    "representative_junction": "7th Cross Road Area",
    "police_station_jurisdiction": "Mico Layout",
    "congestion_impact_score": 36.8,
    "total_incident_count": 608,
    "priority_level": "MEDIUM",
    "morning_peak_string": "11:00 AM",
    "evening_peak_string": "06:00 PM"
  },
  {
    "cluster_id": 282,
    "cluster_name": "Dr Rajkumar Puniya Bhoomi Road Area Cluster Hub",
    "center_latitude": 12.9504604705,
    "center_longitude": 77.522073451,
    "representative_junction": "Dr Rajkumar Puniya Bhoomi Road Area",
    "police_station_jurisdiction": "Byatarayanapura",
    "congestion_impact_score": 36.5,
    "total_incident_count": 116,
    "priority_level": "MEDIUM",
    "morning_peak_string": "07:00 AM",
    "evening_peak_string": "06:00 PM"
  },
  {
    "cluster_id": 275,
    "cluster_name": "BTP127 - Sagar Hospital, Jayanagar Cluster Hub",
    "center_latitude": 12.927205540552995,
    "center_longitude": 77.59709875437788,
    "representative_junction": "BTP127 - Sagar Hospital, Jayanagar",
    "police_station_jurisdiction": "Jayanagara",
    "congestion_impact_score": 36.4,
    "total_incident_count": 54,
    "priority_level": "MEDIUM",
    "morning_peak_string": "10:00 AM",
    "evening_peak_string": "06:00 PM"
  },
  {
    "cluster_id": 85,
    "cluster_name": "4th Cross Road Area Cluster Hub",
    "center_latitude": 13.058372482884877,
    "center_longitude": 77.59231592198385,
    "representative_junction": "4th Cross Road Area",
    "police_station_jurisdiction": "Kodigehalli",
    "congestion_impact_score": 35.6,
    "total_incident_count": 314,
    "priority_level": "MEDIUM",
    "morning_peak_string": "12:00 PM",
    "evening_peak_string": "05:00 PM"
  },
  {
    "cluster_id": 46,
    "cluster_name": "BTP126 - Dairy Circle Cluster Hub",
    "center_latitude": 12.93673948470948,
    "center_longitude": 77.60173146819572,
    "representative_junction": "BTP126 - Dairy Circle",
    "police_station_jurisdiction": "Mico Layout",
    "congestion_impact_score": 35.4,
    "total_incident_count": 213,
    "priority_level": "MEDIUM",
    "morning_peak_string": "07:00 AM",
    "evening_peak_string": "06:00 PM"
  },
  {
    "cluster_id": 45,
    "cluster_name": "RT Nagar Main Road Area Cluster Hub",
    "center_latitude": 13.022883990361446,
    "center_longitude": 77.59290695040161,
    "representative_junction": "RT Nagar Main Road Area",
    "police_station_jurisdiction": "R.T. Nagar",
    "congestion_impact_score": 35.4,
    "total_incident_count": 469,
    "priority_level": "MEDIUM",
    "morning_peak_string": "07:00 AM",
    "evening_peak_string": "06:00 PM"
  },
  {
    "cluster_id": 76,
    "cluster_name": "Sarjapura Main Road Area Cluster Hub",
    "center_latitude": 12.917407662887154,
    "center_longitude": 77.67231903855297,
    "representative_junction": "Sarjapura Main Road Area",
    "police_station_jurisdiction": "Bellandur",
    "congestion_impact_score": 35.4,
    "total_incident_count": 296,
    "priority_level": "MEDIUM",
    "morning_peak_string": "10:00 AM",
    "evening_peak_string": "06:00 PM"
  },
  {
    "cluster_id": 99,
    "cluster_name": "BTP130 - GD Mara Junction Cluster Hub",
    "center_latitude": 12.908054635968993,
    "center_longitude": 77.60079756186046,
    "representative_junction": "BTP130 - GD Mara Junction",
    "police_station_jurisdiction": "Mico Layout",
    "congestion_impact_score": 34.8,
    "total_incident_count": 605,
    "priority_level": "MEDIUM",
    "morning_peak_string": "11:00 AM",
    "evening_peak_string": "06:00 PM"
  },
  {
    "cluster_id": 84,
    "cluster_name": "BTP001 - 10th Cross, Dr. Rajkumar Road Cluster Hub",
    "center_latitude": 13.003897420866243,
    "center_longitude": 77.55351023839842,
    "representative_junction": "BTP001 - 10th Cross, Dr. Rajkumar Road",
    "police_station_jurisdiction": "Malleshwaram",
    "congestion_impact_score": 34.7,
    "total_incident_count": 330,
    "priority_level": "MEDIUM",
    "morning_peak_string": "10:00 AM",
    "evening_peak_string": "06:00 PM"
  },
  {
    "cluster_id": 88,
    "cluster_name": "BTP197 - 9th Cross, 24th Main, JP Nagar Cluster Hub",
    "center_latitude": 12.913122294020017,
    "center_longitude": 77.58575084910063,
    "representative_junction": "BTP197 - 9th Cross, 24th Main, JP Nagar",
    "police_station_jurisdiction": "J.P. Nagar",
    "congestion_impact_score": 34.6,
    "total_incident_count": 336,
    "priority_level": "MEDIUM",
    "morning_peak_string": "11:00 AM",
    "evening_peak_string": "04:00 PM"
  },
  {
    "cluster_id": 207,
    "cluster_name": "Dr Rajkumar Puniya Bhoomi Road Area Cluster Hub",
    "center_latitude": 13.02214467486631,
    "center_longitude": 77.53252495240642,
    "representative_junction": "Dr Rajkumar Puniya Bhoomi Road Area",
    "police_station_jurisdiction": "Rajajinagar",
    "congestion_impact_score": 34.0,
    "total_incident_count": 147,
    "priority_level": "MEDIUM",
    "morning_peak_string": "10:00 AM",
    "evening_peak_string": "06:00 PM"
  },
  {
    "cluster_id": 14,
    "cluster_name": "4th Main Road Area Cluster Hub",
    "center_latitude": 12.996339600176992,
    "center_longitude": 77.56309797522124,
    "representative_junction": "4th Main Road Area",
    "police_station_jurisdiction": "Sheshadripuram",
    "congestion_impact_score": 34.0,
    "total_incident_count": 561,
    "priority_level": "MEDIUM",
    "morning_peak_string": "09:00 AM",
    "evening_peak_string": "06:00 PM"
  },
  {
    "cluster_id": 285,
    "cluster_name": "Railway Line Road Area Cluster Hub",
    "center_latitude": 12.991764029874213,
    "center_longitude": 77.65229911132076,
    "representative_junction": "Railway Line Road Area",
    "police_station_jurisdiction": "Banaswadi",
    "congestion_impact_score": 33.8,
    "total_incident_count": 162,
    "priority_level": "MEDIUM",
    "morning_peak_string": "07:00 AM",
    "evening_peak_string": "06:00 PM"
  },
  {
    "cluster_id": 251,
    "cluster_name": "Mysore Road Area Cluster Hub",
    "center_latitude": 12.947721313636364,
    "center_longitude": 77.53406338560606,
    "representative_junction": "Mysore Road Area",
    "police_station_jurisdiction": "Byatarayanapura",
    "congestion_impact_score": 33.5,
    "total_incident_count": 82,
    "priority_level": "MEDIUM",
    "morning_peak_string": "12:00 PM",
    "evening_peak_string": "06:00 PM"
  },
  {
    "cluster_id": 167,
    "cluster_name": "Sarjapura Main Road Area Cluster Hub",
    "center_latitude": 12.913061668279227,
    "center_longitude": 77.67956897433436,
    "representative_junction": "Sarjapura Main Road Area",
    "police_station_jurisdiction": "Bellandur",
    "congestion_impact_score": 33.4,
    "total_incident_count": 374,
    "priority_level": "MEDIUM",
    "morning_peak_string": "09:00 AM",
    "evening_peak_string": "06:00 PM"
  },
  {
    "cluster_id": 103,
    "cluster_name": "Magadi Main Road Area Cluster Hub",
    "center_latitude": 12.989702211584039,
    "center_longitude": 77.50206020490813,
    "representative_junction": "Magadi Main Road Area",
    "police_station_jurisdiction": "Kamakshipalya",
    "congestion_impact_score": 33.4,
    "total_incident_count": 379,
    "priority_level": "MEDIUM",
    "morning_peak_string": "10:00 AM",
    "evening_peak_string": "06:00 PM"
  },
  {
    "cluster_id": 118,
    "cluster_name": "Shri Ramalingeshwara Cave Temple Road Area Cluster Hub",
    "center_latitude": 12.876253044112149,
    "center_longitude": 77.59597613457944,
    "representative_junction": "Shri Ramalingeshwara Cave Temple Road Area",
    "police_station_jurisdiction": "Hulimavu",
    "congestion_impact_score": 33.2,
    "total_incident_count": 524,
    "priority_level": "MEDIUM",
    "morning_peak_string": "12:00 PM",
    "evening_peak_string": "06:00 PM"
  },
  {
    "cluster_id": 186,
    "cluster_name": "BTP054 - Shivananda Circle Cluster Hub",
    "center_latitude": 12.98706575,
    "center_longitude": 77.58025914892858,
    "representative_junction": "BTP054 - Shivananda Circle",
    "police_station_jurisdiction": "High ground",
    "congestion_impact_score": 32.9,
    "total_incident_count": 255,
    "priority_level": "MEDIUM",
    "morning_peak_string": "07:00 AM",
    "evening_peak_string": "06:00 PM"
  },
  {
    "cluster_id": 225,
    "cluster_name": "Old Madras Road Area Cluster Hub",
    "center_latitude": 12.981077877648364,
    "center_longitude": 77.6304935322174,
    "representative_junction": "Old Madras Road Area",
    "police_station_jurisdiction": "Halasur",
    "congestion_impact_score": 32.8,
    "total_incident_count": 61,
    "priority_level": "MEDIUM",
    "morning_peak_string": "08:00 AM",
    "evening_peak_string": "06:00 PM"
  },
  {
    "cluster_id": 178,
    "cluster_name": "Sri Sri Sri Tiruchi Mahaswamiji Road Area Cluster Hub",
    "center_latitude": 12.935975619899244,
    "center_longitude": 77.51787006423174,
    "representative_junction": "Sri Sri Sri Tiruchi Mahaswamiji Road Area",
    "police_station_jurisdiction": "Byatarayanapura",
    "congestion_impact_score": 32.5,
    "total_incident_count": 364,
    "priority_level": "MEDIUM",
    "morning_peak_string": "10:00 AM",
    "evening_peak_string": "06:00 PM"
  },
  {
    "cluster_id": 156,
    "cluster_name": "Outer Ring Road Area Cluster Hub",
    "center_latitude": 12.921056885483711,
    "center_longitude": 77.66572166140134,
    "representative_junction": "Outer Ring Road Area",
    "police_station_jurisdiction": "Bellandur",
    "congestion_impact_score": 32.3,
    "total_incident_count": 346,
    "priority_level": "MEDIUM",
    "morning_peak_string": "11:00 AM",
    "evening_peak_string": "06:00 PM"
  },
  {
    "cluster_id": 200,
    "cluster_name": "BTP145 - Sri Hatti Maramma Circle, Domluru Cluster Hub",
    "center_latitude": 12.96101474908829,
    "center_longitude": 77.63707984065495,
    "representative_junction": "BTP145 - Sri Hatti Maramma Circle, Domluru",
    "police_station_jurisdiction": "Halasur",
    "congestion_impact_score": 31.9,
    "total_incident_count": 288,
    "priority_level": "MEDIUM",
    "morning_peak_string": "11:00 AM",
    "evening_peak_string": "06:00 PM"
  },
  {
    "cluster_id": 132,
    "cluster_name": "Unnamed Road Area Cluster Hub",
    "center_latitude": 13.184060551984127,
    "center_longitude": 77.68766881944444,
    "representative_junction": "Unnamed Road Area",
    "police_station_jurisdiction": "Chikkajala",
    "congestion_impact_score": 31.9,
    "total_incident_count": 244,
    "priority_level": "MEDIUM",
    "morning_peak_string": "10:00 AM",
    "evening_peak_string": "06:00 PM"
  },
  {
    "cluster_id": 218,
    "cluster_name": "Varthur Main Road Area Cluster Hub",
    "center_latitude": 12.94230671138614,
    "center_longitude": 77.74721824455445,
    "representative_junction": "Varthur Main Road Area",
    "police_station_jurisdiction": "Whitefield",
    "congestion_impact_score": 31.7,
    "total_incident_count": 101,
    "priority_level": "MEDIUM",
    "morning_peak_string": "11:00 AM",
    "evening_peak_string": "06:00 PM"
  },
  {
    "cluster_id": 147,
    "cluster_name": "Dr Rajkumar Puniya Bhoomi Road Area Cluster Hub",
    "center_latitude": 13.00280515862069,
    "center_longitude": 77.52601748275862,
    "representative_junction": "Dr Rajkumar Puniya Bhoomi Road Area",
    "police_station_jurisdiction": "Rajajinagar",
    "congestion_impact_score": 31.6,
    "total_incident_count": 85,
    "priority_level": "MEDIUM",
    "morning_peak_string": "11:00 AM",
    "evening_peak_string": "06:00 PM"
  },
  {
    "cluster_id": 172,
    "cluster_name": "Rajatha Bhavana Road Area Cluster Hub",
    "center_latitude": 13.050904280276818,
    "center_longitude": 77.55270426712802,
    "representative_junction": "Rajatha Bhavana Road Area",
    "police_station_jurisdiction": "Jalahalli",
    "congestion_impact_score": 31.5,
    "total_incident_count": 190,
    "priority_level": "MEDIUM",
    "morning_peak_string": "10:00 AM",
    "evening_peak_string": "06:00 PM"
  },
  {
    "cluster_id": 273,
    "cluster_name": "Subramanyapura Main Road Area Cluster Hub",
    "center_latitude": 12.911532775994045,
    "center_longitude": 77.55213096700996,
    "representative_junction": "Subramanyapura Main Road Area",
    "police_station_jurisdiction": "K.S. Layout",
    "congestion_impact_score": 31.2,
    "total_incident_count": 55,
    "priority_level": "MEDIUM",
    "morning_peak_string": "11:00 AM",
    "evening_peak_string": "06:00 PM"
  },
  {
    "cluster_id": 164,
    "cluster_name": "BTP094 - Sri Skanda Complex, Mysore Road Cluster Hub",
    "center_latitude": 12.955765114935065,
    "center_longitude": 77.5461043909091,
    "representative_junction": "BTP094 - Sri Skanda Complex, Mysore Road",
    "police_station_jurisdiction": "Byatarayanapura",
    "congestion_impact_score": 31.1,
    "total_incident_count": 110,
    "priority_level": "MEDIUM",
    "morning_peak_string": "09:00 AM",
    "evening_peak_string": "06:00 PM"
  },
  {
    "cluster_id": 262,
    "cluster_name": "BTP214 - 5th Main Chamrajpet  Junction Cluster Hub",
    "center_latitude": 12.958035165822784,
    "center_longitude": 77.56735360337552,
    "representative_junction": "BTP214 - 5th Main Chamrajpet  Junction",
    "police_station_jurisdiction": "Chamarajpet",
    "congestion_impact_score": 30.9,
    "total_incident_count": 118,
    "priority_level": "MEDIUM",
    "morning_peak_string": "10:00 AM",
    "evening_peak_string": "06:00 PM"
  },
  {
    "cluster_id": 213,
    "cluster_name": "Nallurahalli Road Area Cluster Hub",
    "center_latitude": 12.963600234056209,
    "center_longitude": 77.73308572390798,
    "representative_junction": "Nallurahalli Road Area",
    "police_station_jurisdiction": "Whitefield",
    "congestion_impact_score": 30.4,
    "total_incident_count": 105,
    "priority_level": "MEDIUM",
    "morning_peak_string": "10:00 AM",
    "evening_peak_string": "06:00 PM"
  },
  {
    "cluster_id": 211,
    "cluster_name": "Outer Ring Road Area Cluster Hub",
    "center_latitude": 12.968780882129929,
    "center_longitude": 77.7010454660915,
    "representative_junction": "Outer Ring Road Area",
    "police_station_jurisdiction": "HAL Old Airport",
    "congestion_impact_score": 30.3,
    "total_incident_count": 128,
    "priority_level": "MEDIUM",
    "morning_peak_string": "09:00 AM",
    "evening_peak_string": "06:00 PM"
  },
  {
    "cluster_id": 13,
    "cluster_name": "Mumbai Bengaluru Highway Area Cluster Hub",
    "center_latitude": 13.045391703636364,
    "center_longitude": 77.50714482545455,
    "representative_junction": "Mumbai Bengaluru Highway Area",
    "police_station_jurisdiction": "Peenya",
    "congestion_impact_score": 30.3,
    "total_incident_count": 255,
    "priority_level": "MEDIUM",
    "morning_peak_string": "07:00 AM",
    "evening_peak_string": "06:00 PM"
  },
  {
    "cluster_id": 11,
    "cluster_name": "BTP034 - LRDE Junction Cluster Hub",
    "center_latitude": 12.988859974467996,
    "center_longitude": 77.59228445027115,
    "representative_junction": "BTP034 - LRDE Junction",
    "police_station_jurisdiction": "High ground",
    "congestion_impact_score": 30.2,
    "total_incident_count": 273,
    "priority_level": "MEDIUM",
    "morning_peak_string": "08:00 AM",
    "evening_peak_string": "06:00 PM"
  },
  {
    "cluster_id": 127,
    "cluster_name": "80 Feet Road Area Cluster Hub",
    "center_latitude": 12.925578898165138,
    "center_longitude": 77.63356537018349,
    "representative_junction": "80 Feet Road Area",
    "police_station_jurisdiction": "Adugodi",
    "congestion_impact_score": 29.9,
    "total_incident_count": 178,
    "priority_level": "MEDIUM",
    "morning_peak_string": "11:00 AM",
    "evening_peak_string": "06:00 PM"
  },
  {
    "cluster_id": 69,
    "cluster_name": "Subramanyapura Main Road Area Cluster Hub",
    "center_latitude": 12.906820998578837,
    "center_longitude": 77.5460326790989,
    "representative_junction": "Subramanyapura Main Road Area",
    "police_station_jurisdiction": "K.S. Layout",
    "congestion_impact_score": 29.7,
    "total_incident_count": 126,
    "priority_level": "MEDIUM",
    "morning_peak_string": "12:00 PM",
    "evening_peak_string": "06:00 PM"
  },
  {
    "cluster_id": 142,
    "cluster_name": "BTP176 - Rajalakshmi Kalyana Mantapa, JP Nagar Cluster Hub",
    "center_latitude": 12.917326421076233,
    "center_longitude": 77.57822400493274,
    "representative_junction": "BTP176 - Rajalakshmi Kalyana Mantapa, JP Nagar",
    "police_station_jurisdiction": "Jayanagara",
    "congestion_impact_score": 29.6,
    "total_incident_count": 189,
    "priority_level": "MEDIUM",
    "morning_peak_string": "11:00 AM",
    "evening_peak_string": "06:00 PM"
  },
  {
    "cluster_id": 94,
    "cluster_name": "Sadduguntepalya Road Area Cluster Hub",
    "center_latitude": 12.9309034353211,
    "center_longitude": 77.60663898165137,
    "representative_junction": "Sadduguntepalya Road Area",
    "police_station_jurisdiction": "Mico Layout",
    "congestion_impact_score": 29.2,
    "total_incident_count": 412,
    "priority_level": "MEDIUM",
    "morning_peak_string": "11:00 AM",
    "evening_peak_string": "06:00 PM"
  },
  {
    "cluster_id": 153,
    "cluster_name": "Kodigehalli Main Road Area Cluster Hub",
    "center_latitude": 13.003463336486487,
    "center_longitude": 77.72349642094595,
    "representative_junction": "Kodigehalli Main Road Area",
    "police_station_jurisdiction": "K.R. Pura",
    "congestion_impact_score": 29.1,
    "total_incident_count": 148,
    "priority_level": "MEDIUM",
    "morning_peak_string": "07:00 AM",
    "evening_peak_string": "06:00 PM"
  },
  {
    "cluster_id": 128,
    "cluster_name": "BTP137 - Madiwala Traffic PS Junction Cluster Hub",
    "center_latitude": 12.920082156048649,
    "center_longitude": 77.62095589499879,
    "representative_junction": "BTP137 - Madiwala Traffic PS Junction",
    "police_station_jurisdiction": "Madiwala",
    "congestion_impact_score": 29.1,
    "total_incident_count": 114,
    "priority_level": "MEDIUM",
    "morning_peak_string": "12:00 PM",
    "evening_peak_string": "04:00 PM"
  },
  {
    "cluster_id": 152,
    "cluster_name": "Hosur Road Area Cluster Hub",
    "center_latitude": 12.880718177668166,
    "center_longitude": 77.64506983968009,
    "representative_junction": "Hosur Road Area",
    "police_station_jurisdiction": "Hulimavu",
    "congestion_impact_score": 29.0,
    "total_incident_count": 154,
    "priority_level": "MEDIUM",
    "morning_peak_string": "07:00 AM",
    "evening_peak_string": "06:00 PM"
  },
  {
    "cluster_id": 41,
    "cluster_name": "BTP155 - Katriguppe Junction Cluster Hub",
    "center_latitude": 12.926717840055248,
    "center_longitude": 77.55078743563536,
    "representative_junction": "BTP155 - Katriguppe Junction",
    "police_station_jurisdiction": "Banashankari",
    "congestion_impact_score": 29.0,
    "total_incident_count": 331,
    "priority_level": "MEDIUM",
    "morning_peak_string": "11:00 AM",
    "evening_peak_string": "06:00 PM"
  },
  {
    "cluster_id": 179,
    "cluster_name": "Subramanyapura Main Road Area Cluster Hub",
    "center_latitude": 12.909662498666357,
    "center_longitude": 77.55013004854979,
    "representative_junction": "Subramanyapura Main Road Area",
    "police_station_jurisdiction": "K.S. Layout",
    "congestion_impact_score": 28.9,
    "total_incident_count": 101,
    "priority_level": "MEDIUM",
    "morning_peak_string": "11:00 AM",
    "evening_peak_string": "06:00 PM"
  },
  {
    "cluster_id": 116,
    "cluster_name": "8th Main Road Area Cluster Hub",
    "center_latitude": 13.008633138345864,
    "center_longitude": 77.54307526240602,
    "representative_junction": "8th Main Road Area",
    "police_station_jurisdiction": "Rajajinagar",
    "congestion_impact_score": 28.8,
    "total_incident_count": 239,
    "priority_level": "MEDIUM",
    "morning_peak_string": "10:00 AM",
    "evening_peak_string": "06:00 PM"
  },
  {
    "cluster_id": 243,
    "cluster_name": "Dr BR Ambedkar Road Area Cluster Hub",
    "center_latitude": 12.958568403115265,
    "center_longitude": 77.66823932741433,
    "representative_junction": "Dr BR Ambedkar Road Area",
    "police_station_jurisdiction": "HAL Old Airport",
    "congestion_impact_score": 28.7,
    "total_incident_count": 300,
    "priority_level": "MEDIUM",
    "morning_peak_string": "09:00 AM",
    "evening_peak_string": "05:00 PM"
  },
  {
    "cluster_id": 60,
    "cluster_name": "Kengeri Main Road Area Cluster Hub",
    "center_latitude": 12.971664384699453,
    "center_longitude": 77.5076231535519,
    "representative_junction": "Kengeri Main Road Area",
    "police_station_jurisdiction": "Jnanabharathi",
    "congestion_impact_score": 28.6,
    "total_incident_count": 121,
    "priority_level": "MEDIUM",
    "morning_peak_string": "08:00 AM",
    "evening_peak_string": "06:00 PM"
  },
  {
    "cluster_id": 125,
    "cluster_name": "Allalasandra Main Road Area Cluster Hub",
    "center_latitude": 13.093632253110048,
    "center_longitude": 77.59421910837321,
    "representative_junction": "Allalasandra Main Road Area",
    "police_station_jurisdiction": "Yelahanka",
    "congestion_impact_score": 28.4,
    "total_incident_count": 403,
    "priority_level": "MEDIUM",
    "morning_peak_string": "11:00 AM",
    "evening_peak_string": "06:00 PM"
  },
  {
    "cluster_id": 50,
    "cluster_name": "Konanakunte Main Road Area Cluster Hub",
    "center_latitude": 12.88860550949723,
    "center_longitude": 77.56270122831653,
    "representative_junction": "Konanakunte Main Road Area",
    "police_station_jurisdiction": "Thalagattapura",
    "congestion_impact_score": 28.3,
    "total_incident_count": 354,
    "priority_level": "MEDIUM",
    "morning_peak_string": "11:00 AM",
    "evening_peak_string": "06:00 PM"
  },
  {
    "cluster_id": 166,
    "cluster_name": "BTP216 - Yediyur Junction Cluster Hub",
    "center_latitude": 12.938220790166687,
    "center_longitude": 77.57690053889051,
    "representative_junction": "BTP216 - Yediyur Junction",
    "police_station_jurisdiction": "Basavanagudi",
    "congestion_impact_score": 28.1,
    "total_incident_count": 189,
    "priority_level": "MEDIUM",
    "morning_peak_string": "07:00 AM",
    "evening_peak_string": "06:00 PM"
  },
  {
    "cluster_id": 175,
    "cluster_name": "Jayamahal Main Road Area Cluster Hub",
    "center_latitude": 13.005418945116277,
    "center_longitude": 77.59363065953488,
    "representative_junction": "Jayamahal Main Road Area",
    "police_station_jurisdiction": "R.T. Nagar",
    "congestion_impact_score": 28.0,
    "total_incident_count": 187,
    "priority_level": "MEDIUM",
    "morning_peak_string": "10:00 AM",
    "evening_peak_string": "06:00 PM"
  },
  {
    "cluster_id": 165,
    "cluster_name": "Banaswadi Main Road Area Cluster Hub",
    "center_latitude": 12.99931639849246,
    "center_longitude": 77.62485139145728,
    "representative_junction": "Banaswadi Main Road Area",
    "police_station_jurisdiction": "Pulikeshinagar(F.Town)",
    "congestion_impact_score": 27.9,
    "total_incident_count": 192,
    "priority_level": "MEDIUM",
    "morning_peak_string": "11:00 AM",
    "evening_peak_string": "06:00 PM"
  },
  {
    "cluster_id": 126,
    "cluster_name": "BTP117 - 9th Cross, Kanakapura Road Cluster Hub",
    "center_latitude": 12.911127279310346,
    "center_longitude": 77.5732966137931,
    "representative_junction": "BTP117 - 9th Cross, Kanakapura Road",
    "police_station_jurisdiction": "J.P. Nagar",
    "congestion_impact_score": 27.8,
    "total_incident_count": 215,
    "priority_level": "MEDIUM",
    "morning_peak_string": "11:00 AM",
    "evening_peak_string": "06:00 PM"
  },
  {
    "cluster_id": 91,
    "cluster_name": "Whitefield Road Area Cluster Hub",
    "center_latitude": 12.99888649991725,
    "center_longitude": 77.6881589489784,
    "representative_junction": "Whitefield Road Area",
    "police_station_jurisdiction": "Mahadevapura",
    "congestion_impact_score": 27.8,
    "total_incident_count": 118,
    "priority_level": "MEDIUM",
    "morning_peak_string": "10:00 AM",
    "evening_peak_string": "06:00 PM"
  },
  {
    "cluster_id": 136,
    "cluster_name": "Professor K Venkatachalam Circle Area Cluster Hub",
    "center_latitude": 12.987427147859647,
    "center_longitude": 77.61870333390031,
    "representative_junction": "Professor K Venkatachalam Circle Area",
    "police_station_jurisdiction": "Pulikeshinagar(F.Town)",
    "congestion_impact_score": 27.7,
    "total_incident_count": 220,
    "priority_level": "MEDIUM",
    "morning_peak_string": "10:00 AM",
    "evening_peak_string": "06:00 PM"
  },
  {
    "cluster_id": 111,
    "cluster_name": "Sarjapura Main Road Area Cluster Hub",
    "center_latitude": 12.896639757657658,
    "center_longitude": 77.72006212837837,
    "representative_junction": "Sarjapura Main Road Area",
    "police_station_jurisdiction": "Whitefield",
    "congestion_impact_score": 27.5,
    "total_incident_count": 174,
    "priority_level": "MEDIUM",
    "morning_peak_string": "11:00 AM",
    "evening_peak_string": "06:00 PM"
  },
  {
    "cluster_id": 286,
    "cluster_name": "Hosur Road Area Cluster Hub",
    "center_latitude": 12.855409528926202,
    "center_longitude": 77.66451071694107,
    "representative_junction": "Hosur Road Area",
    "police_station_jurisdiction": "Electronic City",
    "congestion_impact_score": 27.5,
    "total_incident_count": 87,
    "priority_level": "MEDIUM",
    "morning_peak_string": "08:00 AM",
    "evening_peak_string": "06:00 PM"
  },
  {
    "cluster_id": 105,
    "cluster_name": "3rd Main Road Area Cluster Hub",
    "center_latitude": 13.007011406185569,
    "center_longitude": 77.57906269896907,
    "representative_junction": "3rd Main Road Area",
    "police_station_jurisdiction": "Sadashivanagar",
    "congestion_impact_score": 27.3,
    "total_incident_count": 156,
    "priority_level": "MEDIUM",
    "morning_peak_string": "11:00 AM",
    "evening_peak_string": "06:00 PM"
  },
  {
    "cluster_id": 190,
    "cluster_name": "Thanisandra Main Road Area Cluster Hub",
    "center_latitude": 13.071758942553192,
    "center_longitude": 77.6337291675532,
    "representative_junction": "Thanisandra Main Road Area",
    "police_station_jurisdiction": "Hennuru",
    "congestion_impact_score": 27.3,
    "total_incident_count": 106,
    "priority_level": "MEDIUM",
    "morning_peak_string": "07:00 AM",
    "evening_peak_string": "06:00 PM"
  },
  {
    "cluster_id": 169,
    "cluster_name": "BTP089 - Police Quarters, Sultan Road Cluster Hub",
    "center_latitude": 12.96043142983871,
    "center_longitude": 77.56239308064517,
    "representative_junction": "BTP089 - Police Quarters, Sultan Road",
    "police_station_jurisdiction": "Chamarajpet",
    "congestion_impact_score": 27.2,
    "total_incident_count": 81,
    "priority_level": "MEDIUM",
    "morning_peak_string": "12:00 PM",
    "evening_peak_string": "06:00 PM"
  },
  {
    "cluster_id": 242,
    "cluster_name": "HAL Airport Road Area Cluster Hub",
    "center_latitude": 12.95636447734901,
    "center_longitude": 77.73206660666415,
    "representative_junction": "HAL Airport Road Area",
    "police_station_jurisdiction": "Whitefield",
    "congestion_impact_score": 27.0,
    "total_incident_count": 79,
    "priority_level": "MEDIUM",
    "morning_peak_string": "09:00 AM",
    "evening_peak_string": "04:00 PM"
  },
  {
    "cluster_id": 185,
    "cluster_name": "1st Cross Road Area Cluster Hub",
    "center_latitude": 12.966824216568048,
    "center_longitude": 77.65827259467456,
    "representative_junction": "1st Cross Road Area",
    "police_station_jurisdiction": "Jeevanbheemanagar",
    "congestion_impact_score": 26.8,
    "total_incident_count": 88,
    "priority_level": "MEDIUM",
    "morning_peak_string": "09:00 AM",
    "evening_peak_string": "06:00 PM"
  },
  {
    "cluster_id": 141,
    "cluster_name": "Old Airport Road Area Cluster Hub",
    "center_latitude": 12.959358977592652,
    "center_longitude": 77.65611964606595,
    "representative_junction": "Old Airport Road Area",
    "police_station_jurisdiction": "Jeevanbheemanagar",
    "congestion_impact_score": 26.7,
    "total_incident_count": 103,
    "priority_level": "MEDIUM",
    "morning_peak_string": "09:00 AM",
    "evening_peak_string": "04:00 PM"
  },
  {
    "cluster_id": 291,
    "cluster_name": "HAL Airport Road Area Cluster Hub",
    "center_latitude": 12.95570083671875,
    "center_longitude": 77.71827982578125,
    "representative_junction": "HAL Airport Road Area",
    "police_station_jurisdiction": "Whitefield",
    "congestion_impact_score": 26.6,
    "total_incident_count": 68,
    "priority_level": "MEDIUM",
    "morning_peak_string": "09:00 AM",
    "evening_peak_string": "06:00 PM"
  },
  {
    "cluster_id": 100,
    "cluster_name": "Sri Sri Sri Tiruchi Mahaswamiji Road Area Cluster Hub",
    "center_latitude": 12.931916409987569,
    "center_longitude": 77.51566227501179,
    "representative_junction": "Sri Sri Sri Tiruchi Mahaswamiji Road Area",
    "police_station_jurisdiction": "Kengeri",
    "congestion_impact_score": 26.4,
    "total_incident_count": 104,
    "priority_level": "MEDIUM",
    "morning_peak_string": "07:00 AM",
    "evening_peak_string": "06:00 PM"
  },
  {
    "cluster_id": 181,
    "cluster_name": "Mysore Road Area Cluster Hub",
    "center_latitude": 12.940551242783505,
    "center_longitude": 77.52457943917526,
    "representative_junction": "Mysore Road Area",
    "police_station_jurisdiction": "Byatarayanapura",
    "congestion_impact_score": 26.3,
    "total_incident_count": 172,
    "priority_level": "MEDIUM",
    "morning_peak_string": "11:00 AM",
    "evening_peak_string": "04:00 PM"
  },
  {
    "cluster_id": 40,
    "cluster_name": "BTP123 - 10th Cross, Wilson Garden Cluster Hub",
    "center_latitude": 12.945175814794066,
    "center_longitude": 77.59503522368243,
    "representative_junction": "BTP123 - 10th Cross, Wilson Garden",
    "police_station_jurisdiction": "Wilson Garden",
    "congestion_impact_score": 26.0,
    "total_incident_count": 291,
    "priority_level": "MEDIUM",
    "morning_peak_string": "11:00 AM",
    "evening_peak_string": "04:00 PM"
  },
  {
    "cluster_id": 113,
    "cluster_name": "Soniya Gandhi Road Area Cluster Hub",
    "center_latitude": 13.057129570098038,
    "center_longitude": 77.54703871127451,
    "representative_junction": "Soniya Gandhi Road Area",
    "police_station_jurisdiction": "Jalahalli",
    "congestion_impact_score": 25.7,
    "total_incident_count": 197,
    "priority_level": "MEDIUM",
    "morning_peak_string": "11:00 AM",
    "evening_peak_string": "06:00 PM"
  },
  {
    "cluster_id": 120,
    "cluster_name": "19th Main Road Area Cluster Hub",
    "center_latitude": 12.910721404017858,
    "center_longitude": 77.64459332678572,
    "representative_junction": "19th Main Road Area",
    "police_station_jurisdiction": "HSR Layout",
    "congestion_impact_score": 25.2,
    "total_incident_count": 211,
    "priority_level": "MEDIUM",
    "morning_peak_string": "10:00 AM",
    "evening_peak_string": "06:00 PM"
  },
  {
    "cluster_id": 278,
    "cluster_name": "BTP099 - Cash Pharmacy, Residency Road Cluster Hub",
    "center_latitude": 12.968944526666666,
    "center_longitude": 77.60197941904761,
    "representative_junction": "BTP099 - Cash Pharmacy, Residency Road",
    "police_station_jurisdiction": "Ashok Nagar",
    "congestion_impact_score": 25.0,
    "total_incident_count": 71,
    "priority_level": "MEDIUM",
    "morning_peak_string": "08:00 AM",
    "evening_peak_string": "06:00 PM"
  },
  {
    "cluster_id": 287,
    "cluster_name": "Rampura Main Road Area Cluster Hub",
    "center_latitude": 13.035824092436975,
    "center_longitude": 77.73560366554622,
    "representative_junction": "Rampura Main Road Area",
    "police_station_jurisdiction": "K.R. Pura",
    "congestion_impact_score": 24.7,
    "total_incident_count": 56,
    "priority_level": "MEDIUM",
    "morning_peak_string": "11:00 AM",
    "evening_peak_string": "06:00 PM"
  },
  {
    "cluster_id": 37,
    "cluster_name": "Sarjapura Main Road Area Cluster Hub",
    "center_latitude": 12.906806402418614,
    "center_longitude": 77.69668095801168,
    "representative_junction": "Sarjapura Main Road Area",
    "police_station_jurisdiction": "Bellandur",
    "congestion_impact_score": 24.7,
    "total_incident_count": 208,
    "priority_level": "MEDIUM",
    "morning_peak_string": "07:00 AM",
    "evening_peak_string": "06:00 PM"
  },
  {
    "cluster_id": 203,
    "cluster_name": "BTP052 - CID Carlton House Junction Cluster Hub",
    "center_latitude": 12.981102410594206,
    "center_longitude": 77.58833006655513,
    "representative_junction": "BTP052 - CID Carlton House Junction",
    "police_station_jurisdiction": "Cubbon Park",
    "congestion_impact_score": 24.0,
    "total_incident_count": 144,
    "priority_level": "MEDIUM",
    "morning_peak_string": "07:00 AM",
    "evening_peak_string": "06:00 PM"
  },
  {
    "cluster_id": 288,
    "cluster_name": "BTP009 - Prakash Nagar Junction Cluster Hub",
    "center_latitude": 12.992587447540982,
    "center_longitude": 77.55805267377049,
    "representative_junction": "BTP009 - Prakash Nagar Junction",
    "police_station_jurisdiction": "Rajajinagar",
    "congestion_impact_score": 23.8,
    "total_incident_count": 240,
    "priority_level": "MEDIUM",
    "morning_peak_string": "10:00 AM",
    "evening_peak_string": "06:00 PM"
  },
  {
    "cluster_id": 250,
    "cluster_name": "100 Feet Road Area Cluster Hub",
    "center_latitude": 12.981290141637203,
    "center_longitude": 77.64069935090019,
    "representative_junction": "100 Feet Road Area",
    "police_station_jurisdiction": "Jeevanbheemanagar",
    "congestion_impact_score": 23.5,
    "total_incident_count": 62,
    "priority_level": "MEDIUM",
    "morning_peak_string": "12:00 PM",
    "evening_peak_string": "04:00 PM"
  },
  {
    "cluster_id": 279,
    "cluster_name": "Mims Gulmohar Road Area Cluster Hub",
    "center_latitude": 12.985467605022832,
    "center_longitude": 77.7456468127854,
    "representative_junction": "Mims Gulmohar Road Area",
    "police_station_jurisdiction": "Whitefield",
    "congestion_impact_score": 23.5,
    "total_incident_count": 106,
    "priority_level": "MEDIUM",
    "morning_peak_string": "10:00 AM",
    "evening_peak_string": "06:00 PM"
  },
  {
    "cluster_id": 276,
    "cluster_name": "Whitefield Main Road Area Cluster Hub",
    "center_latitude": 12.983441161702128,
    "center_longitude": 77.75205070425531,
    "representative_junction": "Whitefield Main Road Area",
    "police_station_jurisdiction": "Whitefield",
    "congestion_impact_score": 23.4,
    "total_incident_count": 63,
    "priority_level": "MEDIUM",
    "morning_peak_string": "09:00 AM",
    "evening_peak_string": "06:00 PM"
  },
  {
    "cluster_id": 254,
    "cluster_name": "1st Main Road Area Cluster Hub",
    "center_latitude": 13.000270334117648,
    "center_longitude": 77.52536551529411,
    "representative_junction": "1st Main Road Area",
    "police_station_jurisdiction": "Rajajinagar",
    "congestion_impact_score": 23.3,
    "total_incident_count": 60,
    "priority_level": "MEDIUM",
    "morning_peak_string": "11:00 AM",
    "evening_peak_string": "06:00 PM"
  },
  {
    "cluster_id": 138,
    "cluster_name": "BTP219 - Canara Bank Junction Cluster Hub",
    "center_latitude": 12.931671264968154,
    "center_longitude": 77.5860542834395,
    "representative_junction": "BTP219 - Canara Bank Junction",
    "police_station_jurisdiction": "Jayanagara",
    "congestion_impact_score": 23.3,
    "total_incident_count": 153,
    "priority_level": "MEDIUM",
    "morning_peak_string": "09:00 AM",
    "evening_peak_string": "06:00 PM"
  },
  {
    "cluster_id": 199,
    "cluster_name": "Hosur Road Area Cluster Hub",
    "center_latitude": 12.897673562388562,
    "center_longitude": 77.63471624863205,
    "representative_junction": "Hosur Road Area",
    "police_station_jurisdiction": "HSR Layout",
    "congestion_impact_score": 23.2,
    "total_incident_count": 123,
    "priority_level": "MEDIUM",
    "morning_peak_string": "11:00 AM",
    "evening_peak_string": "06:00 PM"
  },
  {
    "cluster_id": 168,
    "cluster_name": "1st Main Road Area Cluster Hub",
    "center_latitude": 13.016096101265823,
    "center_longitude": 77.54995999746835,
    "representative_junction": "1st Main Road Area",
    "police_station_jurisdiction": "Rajajinagar",
    "congestion_impact_score": 23.0,
    "total_incident_count": 69,
    "priority_level": "MEDIUM",
    "morning_peak_string": "11:00 AM",
    "evening_peak_string": "06:00 PM"
  },
  {
    "cluster_id": 134,
    "cluster_name": "CMR Road Area Cluster Hub",
    "center_latitude": 13.022266721281142,
    "center_longitude": 77.63853877140181,
    "representative_junction": "CMR Road Area",
    "police_station_jurisdiction": "Banaswadi",
    "congestion_impact_score": 22.8,
    "total_incident_count": 245,
    "priority_level": "MEDIUM",
    "morning_peak_string": "12:00 PM",
    "evening_peak_string": "04:00 PM"
  },
  {
    "cluster_id": 161,
    "cluster_name": "Bannerghatta Main Road Area Cluster Hub",
    "center_latitude": 12.894834135416666,
    "center_longitude": 77.59912493645832,
    "representative_junction": "Bannerghatta Main Road Area",
    "police_station_jurisdiction": "J.P. Nagar",
    "congestion_impact_score": 22.7,
    "total_incident_count": 187,
    "priority_level": "MEDIUM",
    "morning_peak_string": "07:00 AM",
    "evening_peak_string": "06:00 PM"
  },
  {
    "cluster_id": 208,
    "cluster_name": "BTP102 - BMTC Junction, KH Road Cluster Hub",
    "center_latitude": 12.954696149999998,
    "center_longitude": 77.59293209315068,
    "representative_junction": "BTP102 - BMTC Junction, KH Road",
    "police_station_jurisdiction": "Wilson Garden",
    "congestion_impact_score": 22.4,
    "total_incident_count": 142,
    "priority_level": "MEDIUM",
    "morning_peak_string": "09:00 AM",
    "evening_peak_string": "06:00 PM"
  },
  {
    "cluster_id": 290,
    "cluster_name": "Whitefield Main Road Area Cluster Hub",
    "center_latitude": 12.96906285577071,
    "center_longitude": 77.74987585657563,
    "representative_junction": "Whitefield Main Road Area",
    "police_station_jurisdiction": "Whitefield",
    "congestion_impact_score": 22.2,
    "total_incident_count": 55,
    "priority_level": "MEDIUM",
    "morning_peak_string": "07:00 AM",
    "evening_peak_string": "06:00 PM"
  },
  {
    "cluster_id": 195,
    "cluster_name": "BTP098 - Nayandahalli Junction Cluster Hub",
    "center_latitude": 12.944419208045975,
    "center_longitude": 77.52702066206896,
    "representative_junction": "BTP098 - Nayandahalli Junction",
    "police_station_jurisdiction": "Byatarayanapura",
    "congestion_impact_score": 22.0,
    "total_incident_count": 72,
    "priority_level": "MEDIUM",
    "morning_peak_string": "11:00 AM",
    "evening_peak_string": "06:00 PM"
  },
  {
    "cluster_id": 159,
    "cluster_name": "Dr Rajkumar Puniya Bhoomi Road Area Cluster Hub",
    "center_latitude": 12.987117419472028,
    "center_longitude": 77.51956249803007,
    "representative_junction": "Dr Rajkumar Puniya Bhoomi Road Area",
    "police_station_jurisdiction": "Kamakshipalya",
    "congestion_impact_score": 22.0,
    "total_incident_count": 241,
    "priority_level": "MEDIUM",
    "morning_peak_string": "08:00 AM",
    "evening_peak_string": "06:00 PM"
  },
  {
    "cluster_id": 107,
    "cluster_name": "Hesaraghatta Main Road Area Cluster Hub",
    "center_latitude": 13.054999550387597,
    "center_longitude": 77.50760075116278,
    "representative_junction": "Hesaraghatta Main Road Area",
    "police_station_jurisdiction": "Chikkabanavara",
    "congestion_impact_score": 21.9,
    "total_incident_count": 107,
    "priority_level": "MEDIUM",
    "morning_peak_string": "11:00 AM",
    "evening_peak_string": "06:00 PM"
  },
  {
    "cluster_id": 20,
    "cluster_name": "8th Main Road Area Cluster Hub",
    "center_latitude": 12.934974005882353,
    "center_longitude": 77.53651766666667,
    "representative_junction": "8th Main Road Area",
    "police_station_jurisdiction": "Banashankari",
    "congestion_impact_score": 21.9,
    "total_incident_count": 244,
    "priority_level": "MEDIUM",
    "morning_peak_string": "07:00 AM",
    "evening_peak_string": "06:00 PM"
  },
  {
    "cluster_id": 227,
    "cluster_name": "Memorial Road Area Cluster Hub",
    "center_latitude": 12.99050261025641,
    "center_longitude": 77.61213551623932,
    "representative_junction": "Memorial Road Area",
    "police_station_jurisdiction": "Pulikeshinagar(F.Town)",
    "congestion_impact_score": 21.8,
    "total_incident_count": 113,
    "priority_level": "LOW",
    "morning_peak_string": "11:00 AM",
    "evening_peak_string": "06:00 PM"
  },
  {
    "cluster_id": 224,
    "cluster_name": "KIADB Road Area Cluster Hub",
    "center_latitude": 13.0419249510101,
    "center_longitude": 77.51449788333333,
    "representative_junction": "KIADB Road Area",
    "police_station_jurisdiction": "Peenya",
    "congestion_impact_score": 21.7,
    "total_incident_count": 101,
    "priority_level": "LOW",
    "morning_peak_string": "11:00 AM",
    "evening_peak_string": "06:00 PM"
  },
  {
    "cluster_id": 117,
    "cluster_name": "BTP123 - 10th Cross, Wilson Garden Cluster Hub",
    "center_latitude": 12.948929990789475,
    "center_longitude": 77.59768290526317,
    "representative_junction": "BTP123 - 10th Cross, Wilson Garden",
    "police_station_jurisdiction": "Wilson Garden",
    "congestion_impact_score": 21.7,
    "total_incident_count": 151,
    "priority_level": "LOW",
    "morning_peak_string": "08:00 AM",
    "evening_peak_string": "05:00 PM"
  },
  {
    "cluster_id": 259,
    "cluster_name": "Varthur Main Road Area Cluster Hub",
    "center_latitude": 12.938132068141593,
    "center_longitude": 77.7467908017699,
    "representative_junction": "Varthur Main Road Area",
    "police_station_jurisdiction": "Whitefield",
    "congestion_impact_score": 21.6,
    "total_incident_count": 56,
    "priority_level": "LOW",
    "morning_peak_string": "10:00 AM",
    "evening_peak_string": "04:00 PM"
  },
  {
    "cluster_id": 102,
    "cluster_name": "Mumbai Bengaluru Highway Area Cluster Hub",
    "center_latitude": 13.04709122175926,
    "center_longitude": 77.50095590000001,
    "representative_junction": "Mumbai Bengaluru Highway Area",
    "police_station_jurisdiction": "Peenya",
    "congestion_impact_score": 21.5,
    "total_incident_count": 163,
    "priority_level": "LOW",
    "morning_peak_string": "11:00 AM",
    "evening_peak_string": "06:00 PM"
  },
  {
    "cluster_id": 237,
    "cluster_name": "Mumbai Bengaluru Highway Area Cluster Hub",
    "center_latitude": 13.050093382142858,
    "center_longitude": 77.49433584285714,
    "representative_junction": "Mumbai Bengaluru Highway Area",
    "police_station_jurisdiction": "Chikkabanavara",
    "congestion_impact_score": 21.5,
    "total_incident_count": 69,
    "priority_level": "LOW",
    "morning_peak_string": "10:00 AM",
    "evening_peak_string": "06:00 PM"
  },
  {
    "cluster_id": 241,
    "cluster_name": "Mumbai Bengaluru Highway Area Cluster Hub",
    "center_latitude": 13.018964028735631,
    "center_longitude": 77.5532636505747,
    "representative_junction": "Mumbai Bengaluru Highway Area",
    "police_station_jurisdiction": "Yeshwanthpura",
    "congestion_impact_score": 21.0,
    "total_incident_count": 59,
    "priority_level": "LOW",
    "morning_peak_string": "07:00 AM",
    "evening_peak_string": "04:00 PM"
  },
  {
    "cluster_id": 222,
    "cluster_name": "BTP184 - Lalbagh West Gate Cluster Hub",
    "center_latitude": 12.948097404639176,
    "center_longitude": 77.5799283871134,
    "representative_junction": "BTP184 - Lalbagh West Gate",
    "police_station_jurisdiction": "Basavanagudi",
    "congestion_impact_score": 21.0,
    "total_incident_count": 185,
    "priority_level": "LOW",
    "morning_peak_string": "10:00 AM",
    "evening_peak_string": "06:00 PM"
  },
  {
    "cluster_id": 245,
    "cluster_name": "Whitefield Main Road Area Cluster Hub",
    "center_latitude": 13.003431612360417,
    "center_longitude": 77.75705340823508,
    "representative_junction": "Whitefield Main Road Area",
    "police_station_jurisdiction": "Mahadevapura",
    "congestion_impact_score": 20.7,
    "total_incident_count": 105,
    "priority_level": "LOW",
    "morning_peak_string": "08:00 AM",
    "evening_peak_string": "06:00 PM"
  },
  {
    "cluster_id": 47,
    "cluster_name": "Chikkabellanduru Road Area Cluster Hub",
    "center_latitude": 12.903673210327282,
    "center_longitude": 77.70418640148597,
    "representative_junction": "Chikkabellanduru Road Area",
    "police_station_jurisdiction": "Bellandur",
    "congestion_impact_score": 20.7,
    "total_incident_count": 142,
    "priority_level": "LOW",
    "morning_peak_string": "11:00 AM",
    "evening_peak_string": "06:00 PM"
  },
  {
    "cluster_id": 210,
    "cluster_name": "BTP103 - Shanti Nagar TTMC Cluster Hub",
    "center_latitude": 12.954137211111112,
    "center_longitude": 77.5908656,
    "representative_junction": "BTP103 - Shanti Nagar TTMC",
    "police_station_jurisdiction": "Wilson Garden",
    "congestion_impact_score": 20.6,
    "total_incident_count": 109,
    "priority_level": "LOW",
    "morning_peak_string": "10:00 AM",
    "evening_peak_string": "06:00 PM"
  },
  {
    "cluster_id": 197,
    "cluster_name": "Outer Ring Road Area Cluster Hub",
    "center_latitude": 12.924080195880109,
    "center_longitude": 77.67345468587085,
    "representative_junction": "Outer Ring Road Area",
    "police_station_jurisdiction": "Bellandur",
    "congestion_impact_score": 20.5,
    "total_incident_count": 102,
    "priority_level": "LOW",
    "morning_peak_string": "11:00 AM",
    "evening_peak_string": "06:00 PM"
  },
  {
    "cluster_id": 163,
    "cluster_name": "Dr APJ Abdul Kalam Marg Area Cluster Hub",
    "center_latitude": 12.980167099,
    "center_longitude": 77.652106714,
    "representative_junction": "Dr APJ Abdul Kalam Marg Area",
    "police_station_jurisdiction": "Banaswadi",
    "congestion_impact_score": 20.2,
    "total_incident_count": 90,
    "priority_level": "LOW",
    "morning_peak_string": "07:00 AM",
    "evening_peak_string": "06:00 PM"
  },
  {
    "cluster_id": 162,
    "cluster_name": "3rd A Cross Road Area Cluster Hub",
    "center_latitude": 13.099639511290324,
    "center_longitude": 77.58864274032258,
    "representative_junction": "3rd A Cross Road Area",
    "police_station_jurisdiction": "Yelahanka",
    "congestion_impact_score": 20.1,
    "total_incident_count": 180,
    "priority_level": "LOW",
    "morning_peak_string": "11:00 AM",
    "evening_peak_string": "06:00 PM"
  },
  {
    "cluster_id": 177,
    "cluster_name": "BTP132 - Anepalya Junction Cluster Hub",
    "center_latitude": 12.951592048245613,
    "center_longitude": 77.60756497543859,
    "representative_junction": "BTP132 - Anepalya Junction",
    "police_station_jurisdiction": "Ashok Nagar",
    "congestion_impact_score": 20.0,
    "total_incident_count": 111,
    "priority_level": "LOW",
    "morning_peak_string": "10:00 AM",
    "evening_peak_string": "06:00 PM"
  },
  {
    "cluster_id": 272,
    "cluster_name": "BTP226 - 33rd Cross, 11th Main, Jayanagar Cluster Hub",
    "center_latitude": 12.92235274040404,
    "center_longitude": 77.58585414141415,
    "representative_junction": "BTP226 - 33rd Cross, 11th Main, Jayanagar",
    "police_station_jurisdiction": "Jayanagara",
    "congestion_impact_score": 20.0,
    "total_incident_count": 68,
    "priority_level": "LOW",
    "morning_peak_string": "08:00 AM",
    "evening_peak_string": "06:00 PM"
  },
  {
    "cluster_id": 231,
    "cluster_name": "27th Main Road Area Cluster Hub",
    "center_latitude": 12.92297339575249,
    "center_longitude": 77.65149802047195,
    "representative_junction": "27th Main Road Area",
    "police_station_jurisdiction": "HSR Layout",
    "congestion_impact_score": 20.0,
    "total_incident_count": 99,
    "priority_level": "LOW",
    "morning_peak_string": "10:00 AM",
    "evening_peak_string": "06:00 PM"
  },
  {
    "cluster_id": 170,
    "cluster_name": "Chikka Banavara RS Road Area Cluster Hub",
    "center_latitude": 13.050488676494023,
    "center_longitude": 77.52553453904383,
    "representative_junction": "Chikka Banavara RS Road Area",
    "police_station_jurisdiction": "Jalahalli",
    "congestion_impact_score": 19.9,
    "total_incident_count": 249,
    "priority_level": "LOW",
    "morning_peak_string": "10:00 AM",
    "evening_peak_string": "06:00 PM"
  },
  {
    "cluster_id": 217,
    "cluster_name": "BTP099 - Cash Pharmacy, Residency Road Cluster Hub",
    "center_latitude": 12.967073536263737,
    "center_longitude": 77.59978826043955,
    "representative_junction": "BTP099 - Cash Pharmacy, Residency Road",
    "police_station_jurisdiction": "Ashok Nagar",
    "congestion_impact_score": 19.9,
    "total_incident_count": 86,
    "priority_level": "LOW",
    "morning_peak_string": "08:00 AM",
    "evening_peak_string": "06:00 PM"
  },
  {
    "cluster_id": 176,
    "cluster_name": "Magadi Main Road Area Cluster Hub",
    "center_latitude": 12.98920075086207,
    "center_longitude": 77.5078059086207,
    "representative_junction": "Magadi Main Road Area",
    "police_station_jurisdiction": "Kamakshipalya",
    "congestion_impact_score": 19.8,
    "total_incident_count": 97,
    "priority_level": "LOW",
    "morning_peak_string": "11:00 AM",
    "evening_peak_string": "06:00 PM"
  },
  {
    "cluster_id": 248,
    "cluster_name": "Industrial Park Road Area Cluster Hub",
    "center_latitude": 12.977901714473683,
    "center_longitude": 77.71292830526315,
    "representative_junction": "Industrial Park Road Area",
    "police_station_jurisdiction": "Mahadevapura",
    "congestion_impact_score": 19.7,
    "total_incident_count": 69,
    "priority_level": "LOW",
    "morning_peak_string": "07:00 AM",
    "evening_peak_string": "06:00 PM"
  },
  {
    "cluster_id": 155,
    "cluster_name": "Kodigehalli Main Road Area Cluster Hub",
    "center_latitude": 13.060045542152828,
    "center_longitude": 77.57657671578379,
    "representative_junction": "Kodigehalli Main Road Area",
    "police_station_jurisdiction": "Kodigehalli",
    "congestion_impact_score": 19.4,
    "total_incident_count": 99,
    "priority_level": "LOW",
    "morning_peak_string": "12:00 PM",
    "evening_peak_string": "06:00 PM"
  },
  {
    "cluster_id": 151,
    "cluster_name": "20th Main Road Area Cluster Hub",
    "center_latitude": 12.942227516666666,
    "center_longitude": 77.62227727192983,
    "representative_junction": "20th Main Road Area",
    "police_station_jurisdiction": "Adugodi",
    "congestion_impact_score": 19.4,
    "total_incident_count": 103,
    "priority_level": "LOW",
    "morning_peak_string": "07:00 AM",
    "evening_peak_string": "06:00 PM"
  },
  {
    "cluster_id": 39,
    "cluster_name": "Bellary Road Area Cluster Hub",
    "center_latitude": 13.053925345197738,
    "center_longitude": 77.59275982090395,
    "representative_junction": "Bellary Road Area",
    "police_station_jurisdiction": "Kodigehalli",
    "congestion_impact_score": 19.4,
    "total_incident_count": 166,
    "priority_level": "LOW",
    "morning_peak_string": "11:00 AM",
    "evening_peak_string": "06:00 PM"
  },
  {
    "cluster_id": 56,
    "cluster_name": "BTP166 - Coffee Board Junction Cluster Hub",
    "center_latitude": 12.985431133636364,
    "center_longitude": 77.59411320272727,
    "representative_junction": "BTP166 - Coffee Board Junction",
    "police_station_jurisdiction": "Cubbon Park",
    "congestion_impact_score": 19.3,
    "total_incident_count": 105,
    "priority_level": "LOW",
    "morning_peak_string": "07:00 AM",
    "evening_peak_string": "06:00 PM"
  },
  {
    "cluster_id": 253,
    "cluster_name": "2nd Main Road Area Cluster Hub",
    "center_latitude": 13.001354690000001,
    "center_longitude": 77.595362937,
    "representative_junction": "2nd Main Road Area",
    "police_station_jurisdiction": "R.T. Nagar",
    "congestion_impact_score": 19.0,
    "total_incident_count": 93,
    "priority_level": "LOW",
    "morning_peak_string": "11:00 AM",
    "evening_peak_string": "06:00 PM"
  },
  {
    "cluster_id": 240,
    "cluster_name": "Marathahalli Bridge Service Road Area Cluster Hub",
    "center_latitude": 12.956595923750001,
    "center_longitude": 77.70863461249999,
    "representative_junction": "Marathahalli Bridge Service Road Area",
    "police_station_jurisdiction": "HAL Old Airport",
    "congestion_impact_score": 19.0,
    "total_incident_count": 78,
    "priority_level": "LOW",
    "morning_peak_string": "07:00 AM",
    "evening_peak_string": "06:00 PM"
  },
  {
    "cluster_id": 257,
    "cluster_name": "BTP074 - Leprosy Hospital Junction Cluster Hub",
    "center_latitude": 12.979439487189543,
    "center_longitude": 77.56433129258589,
    "representative_junction": "BTP074 - Leprosy Hospital Junction",
    "police_station_jurisdiction": "Magadi Road",
    "congestion_impact_score": 19.0,
    "total_incident_count": 90,
    "priority_level": "LOW",
    "morning_peak_string": "11:00 AM",
    "evening_peak_string": "06:00 PM"
  },
  {
    "cluster_id": 196,
    "cluster_name": "8th Main Road Area Cluster Hub",
    "center_latitude": 12.938268876415094,
    "center_longitude": 77.59262558584906,
    "representative_junction": "8th Main Road Area",
    "police_station_jurisdiction": "Wilson Garden",
    "congestion_impact_score": 18.8,
    "total_incident_count": 106,
    "priority_level": "LOW",
    "morning_peak_string": "08:00 AM",
    "evening_peak_string": "06:00 PM"
  },
  {
    "cluster_id": 264,
    "cluster_name": "Sarjapura Main Road Area Cluster Hub",
    "center_latitude": 12.910178377647057,
    "center_longitude": 77.68611278588236,
    "representative_junction": "Sarjapura Main Road Area",
    "police_station_jurisdiction": "Bellandur",
    "congestion_impact_score": 18.7,
    "total_incident_count": 75,
    "priority_level": "LOW",
    "morning_peak_string": "07:00 AM",
    "evening_peak_string": "06:00 PM"
  },
  {
    "cluster_id": 239,
    "cluster_name": "Hosahalli Main Road Area Cluster Hub",
    "center_latitude": 13.144164607936508,
    "center_longitude": 77.61786472619048,
    "representative_junction": "Hosahalli Main Road Area",
    "police_station_jurisdiction": "Chikkajala",
    "congestion_impact_score": 18.6,
    "total_incident_count": 111,
    "priority_level": "LOW",
    "morning_peak_string": "08:00 AM",
    "evening_peak_string": "06:00 PM"
  },
  {
    "cluster_id": 32,
    "cluster_name": "14th Main Road Area Cluster Hub",
    "center_latitude": 12.916388207627119,
    "center_longitude": 77.63818388305084,
    "representative_junction": "14th Main Road Area",
    "police_station_jurisdiction": "HSR Layout",
    "congestion_impact_score": 18.6,
    "total_incident_count": 107,
    "priority_level": "LOW",
    "morning_peak_string": "10:00 AM",
    "evening_peak_string": "06:00 PM"
  },
  {
    "cluster_id": 12,
    "cluster_name": "27th Main Road Area Cluster Hub",
    "center_latitude": 12.917229674860337,
    "center_longitude": 77.65172098435754,
    "representative_junction": "27th Main Road Area",
    "police_station_jurisdiction": "HSR Layout",
    "congestion_impact_score": 18.3,
    "total_incident_count": 176,
    "priority_level": "LOW",
    "morning_peak_string": "11:00 AM",
    "evening_peak_string": "04:00 PM"
  },